index,id,name,location.lat,location.lng,location.postalCode,location.cc,location.city,location.state,location.country,location.formattedAddress,location.address,location.crossStreet,Category,venuePage.id,location.neighborhood,Closest Town,Category Type
0,59da09e5916bc1155fa8e923,Sport a Kulturzenter,49.887571,5.981206,9157,LU,Esch an der Sauer,Dikrech,Lëtzebuerg,"9157 Esch an der Sauer, Lëtzebuerg",,,Cultural Center,,,Wiltz,Professional & Other Places
485,5e9e64c0b247fb0008cc9962,Lëtzebuerg City Museum,49.610056,6.133499,1475,LU,Lëtzebuerg,Lëtzebuerg,Lëtzebuerg,"14 rue Du Saint Esprit, 1475 Lëtzebuerg, Lëtzebuerg",14 rue Du Saint Esprit,,Cultural Center,,,Luxembourg City,Professional & Other Places
1,4feeff03e4b0a516c177b33a,Sports Direct,49.963721992038415,5.85722029209137,9638,LU,Pommerloch,Dikrech,Lëtzebuerg,"Route de Bastogne 19 (Knauf Center), 9638 Pommerloch, Lëtzebuerg",Route de Bastogne 19,Knauf Center,Clothing Store,,,Wiltz,Shop & Service
732,4ea3b7bce5e8ca72b78ce303,Sport Holbach,49.69564889545851,6.576044261455536,,DE,Konz,Rheinland-Pfalz,Deutschland,"Wiltinger Straße, Konz, Deutschland",Wiltinger Straße,,Clothing Store,,,Grevenmacher,Shop & Service
878,5230a9a111d2cb8dda4b50db,Rebounce Shop North,49.847288,6.10042,L-9051,LU,Ettelbruck,Dikrech,Lëtzebuerg,"71 Grand-Rue, L-9051 Ettelbruck, Lëtzebuerg",71 Grand-Rue,,Clothing Store,,,Ettelbruck,Shop & Service
1485,50d5d54fe4b0496ab49ecb70,Factory Shopping,49.608750098017694,5.809272115402573,,BE,,,België,België,,,Clothing Store,,,Differdange,Shop & Service
2,52da63b6498e781e932d8a30,Sporthal in de Bende,49.9309607315809,6.03512124158442,,LU,,,Lëtzebuerg,Lëtzebuerg,,,None,,,Ettelbruck,Professional & Other Places
11,538876c8498ee9aa7b729dae,Free record shop,49.967159972226575,5.860357876483353,,LU,Pommerloch,Dikrech,Lëtzebuerg,"route de bastogne 19, Pommerloch, Lëtzebuerg",route de bastogne 19,,None,,,Wiltz,Professional & Other Places
21,4be18b368dd062b532503e3c,Beau Sejour Hotel Wiltz,49.96935784765311,5.933005157849097,,LU,Wolz,Dikrech,Lëtzebuerg,"21 Rue du 10 Septembre, Wolz, Lëtzebuerg",21 Rue du 10 Septembre,,None,,,Wiltz,Professional & Other Places
131,4bcf6d2e0ffdce725a77b2c0,Hotel Du Parc Diekirch,49.86568370373858,6.157734790150681,,LU,Dikrech,Dikrech,Lëtzebuerg,"Avenue De La Gare 28, Dikrech, Lëtzebuerg",Avenue De La Gare 28,,None,,,Diekirch,Professional & Other Places
147,4be18b238dd062b512503e3c,Star Hotel Galaxy Diekirch,49.86723803233993,6.159423915551697,,LU,Dikrech,Dikrech,Lëtzebuerg,"Avenue de la gare 2-4, Dikrech, Lëtzebuerg",Avenue de la gare 2-4,,None,,,Diekirch,Professional & Other Places
168,4d94507e58caa1438375a725,Restaurant II,49.864154,6.170139,,LU,,,Lëtzebuerg,Lëtzebuerg,,,None,,,Diekirch,Professional & Other Places
222,4cee22ad13aea1433f146c9f,Luxgsm Shop Esch/Alzette,49.49329462433823,5.980489956115071,,LU,,,Lëtzebuerg,Lëtzebuerg,,,None,,,Esch-sur-Alzette,Professional & Other Places
233,4dedd6e018385379de4dbf14,Race Shop Dreambikeshop,49.519736,6.100057,,LU,Bettembourg,Lëtzebuerg,Lëtzebuerg,"Bettembourg, Lëtzebuerg",,,None,,,Dudelange,Professional & Other Places
234,4d90472cc1b1721e20195846,Drink Shop,49.51513490975036,6.1055496426230595,,LU,,,Lëtzebuerg,Lëtzebuerg,,,None,,,Dudelange,Professional & Other Places
235,4dedd64cd4c0194252efe3f2,Dirt Shop Dreambikeshop,49.519736,6.100057,,LU,Bettembourg,Lëtzebuerg,Lëtzebuerg,"Bettembourg, Lëtzebuerg",,,None,,,Dudelange,Professional & Other Places
251,4e5290ecd4c075ade75caa6d,Hotel Ldre,49.442077,6.01873,,FR,Otangeles plage,,France,"Grand rue, Otangeles plage, France",Grand rue,,None,,,Rumelange,Professional & Other Places
257,540affe6498e0b9b2c1b8516,Hotel de Ville Esch-Sur-Alzette,49.496057406,5.985000246,,LU,,,Lëtzebuerg,Lëtzebuerg,,,None,,,Esch-sur-Alzette,Professional & Other Places
267,4bd6e41f1728986ed228b735,Hotel Piemont,49.51348788836797,5.92974904244845,,LU,Lëtzebuerg,Lëtzebuerg,Lëtzebuerg,"Route d'Esch 56-58, Lëtzebuerg, Lëtzebuerg",Route d'Esch 56-58,,None,,,Differdange,Professional & Other Places
312,4c6824799cb82d7f77fd94d2,Restaurant River Kwai,49.496702,5.982375,,LU,Esch-Uelzecht,Lëtzebuerg,Lëtzebuerg,"Grand Rue 52, Esch-Uelzecht, Lëtzebuerg",Grand Rue 52,,None,,,Esch-sur-Alzette,Professional & Other Places
335,4d04d76726adb1f7fabfd470,Hall sportif Roll Delles,49.50584658952897,6.275880200796003,,LU,,,Lëtzebuerg,Lëtzebuerg,,,None,,,Remich,Professional & Other Places
341,59326e2962420b080688be3a,L'Art Créa'Tif,49.44311025,6.36070403,57480,FR,Sierck-les-Bains,Grand Est,France,"3 Quai Ducs de Lorraine, 57480 Sierck-les-Bains, France",3 Quai Ducs de Lorraine,,None,584688001,,Remich,Professional & Other Places
346,582f27e1c5f8a71707e0d1de,Carine Klein- Fleur d''Amour - Artiste Peintre Créatrice,49.442631,6.36100799999997,57480,FR,Sierck les Bains,Alsace-Champagne-Ardenne-Lorraine,France,"16 16 Place du Marché Saint-Honoré, 57480 Sierck les Bains, France",16 16 Place du Marché Saint-Honoré,,None,368755196,,Remich,Professional & Other Places
365,4be18b258dd062b515503e3c,Hotel Du Grand Chef Mondorf-les-Bains,49.50336648283356,6.2807448033315545,,LU,Mondorf-les-Bains,Gréiwemaacher,Lëtzebuerg,"36 Avenue Des Bains, Mondorf-les-Bains, Lëtzebuerg",36 Avenue Des Bains,,None,,,Remich,Professional & Other Places
369,4bc78eca93bdeee1008337ae,Hotel Restaurant Windsor Mondorf-les-Bains,49.50415179149575,6.277616643510687,,LU,Mondorf-les-Bains,Gréiwemaacher,Lëtzebuerg,"58 Avenue Francois Clement, Mondorf-les-Bains, Lëtzebuerg",58 Avenue Francois Clement,,None,,,Remich,Professional & Other Places
410,54e8e891498ea212e6af9756,China Restaurant,49.6280884,6.4143924,,LU,,,Lëtzebuerg,Lëtzebuerg,,,None,,,Grevenmacher,Professional & Other Places
411,54e8e8f1498e405c838e10c3,China Restaurant Konz,49.6280884,6.4143924,,LU,,,Lëtzebuerg,Lëtzebuerg,,,None,,,Grevenmacher,Professional & Other Places
437,4d3536a22c76a143b6a88cc7,INS Halle De Sport,49.61091425362518,6.144525097978505,,LU,,,Lëtzebuerg,Lëtzebuerg,,,None,,,Luxembourg City,Professional & Other Places
461,4d8329bf7e8ef04d9072f0bd,Peters Sport,49.553048,6.105957,,LU,,,Lëtzebuerg,Lëtzebuerg,,,None,,,Luxembourg City,Professional & Other Places
466,4d97773761a3a1cd6737b642,Sportshaal Steesel,49.674426328155484,6.127535116925971,,LU,,,Lëtzebuerg,Lëtzebuerg,,,None,,,Luxembourg City,Professional & Other Places
470,4ddd3c4ec65bfd579e252d40,maison des sports,49.61685689026194,6.095003393846396,,LU,Strassen,Lëtzebuerg,Lëtzebuerg,"Strassen, Lëtzebuerg",,,None,,,Luxembourg City,Professional & Other Places
507,4bdcc81ec79cc928ca2288e9,Artist,49.608643,6.134819,,LU,,,Lëtzebuerg,Lëtzebuerg,,,None,,,Luxembourg City,Professional & Other Places
535,4d8c93e33bfef04d31fa6b86,Orange Shop,49.60884757436368,6.12729155099211,,LU,,,Lëtzebuerg,Lëtzebuerg,,,None,,,Luxembourg City,Professional & Other Places
539,4bbb57391261d13abf88eb98,Camden Shop,49.601131,6.134032,,LU,,,Lëtzebuerg,Lëtzebuerg,,,None,,,Luxembourg City,Professional & Other Places
542,50d6cbb6e4b0421e5e045b07,MPK Shop Gare,49.60046509899423,6.133858031439342,,LU,,,Lëtzebuerg,Lëtzebuerg,,,None,,,Luxembourg City,Professional & Other Places
655,4d12806affa1224b7e9e99ad,Hotel Carton,49.602224,6.128322,,LU,,,Lëtzebuerg,Lëtzebuerg,,,None,,,Luxembourg City,Professional & Other Places
670,4be18b138dd062b5eb4f3e3c,Auberge du Coin Hotel Luxembourg City,49.6018081,6.1258412,,LU,Lëtzebuerg,Lëtzebuerg,Lëtzebuerg,"2 Boulevard de la Petrusse, Lëtzebuerg, Lëtzebuerg",2 Boulevard de la Petrusse,,None,,,Luxembourg City,Professional & Other Places
675,50af4896e4b0a74d345cfb67,Passage L'Hotel de Ville,49.61084278536076,6.1304702874888894,,LU,,,Lëtzebuerg,Lëtzebuerg,,,None,,,Luxembourg City,Professional & Other Places
692,4ca71777931bb60c768d99e2,La Fontaine Restaurant,49.613144205375335,6.133391463814065,,LU,Lëtzebuerg,Lëtzebuerg,Lëtzebuerg,"Lëtzebuerg, Lëtzebuerg",,,None,,,Luxembourg City,Professional & Other Places
694,4cfa983ac6cca35d8e4b8732,Restaurant Jin Fu,49.618768,6.132521,L-2344,LU,Lëtzebuerg,Lëtzebuerg,Lëtzebuerg,"4 rue du Pont, L-2344 Lëtzebuerg, Lëtzebuerg",4 rue du Pont,,None,,,Luxembourg City,Professional & Other Places
707,4cd72003aeb1224b34122cff,La Pomme Cannelle Restaurant,49.61377287382017,6.126822197833166,,LU,,,Lëtzebuerg,Lëtzebuerg,,,None,,,Luxembourg City,Professional & Other Places
713,4b9f6aeef964a5206d2137e3,Restaurant pecci,49.598409392096634,6.123249341478291,,LU,Lëtzebuerg,Lëtzebuerg,Lëtzebuerg,"Lëtzebuerg, Lëtzebuerg",,,None,,,Luxembourg City,Professional & Other Places
725,4b5e0c14f964a520db7a29e3,Porta Negra restaurant,49.617742128012935,6.123870995082535,,LU,Lëtzebuerg,Lëtzebuerg,Lëtzebuerg,"Lëtzebuerg, Lëtzebuerg",,,None,,,Luxembourg City,Professional & Other Places
727,4f3be56ae4b0d6152fbd7bf0,Sportsdokter Grevenmacher,49.676694,6.442672,,LU,,,Lëtzebuerg,Lëtzebuerg,,,None,,,Grevenmacher,Professional & Other Places
742,533eddf0498e5298a705f87a,Mrs.Sporty Club Konz,49.69916079999999,6.5745021,54329,DE,Konz,Rheinland-Pfalz,Deutschland,"Rudolph-Schmitt-Passage 3, 54329 Konz, Deutschland",Rudolph-Schmitt-Passage 3,,None,510298794,,Grevenmacher,Professional & Other Places
752,4e48119d45dd2955e5ad74dc,Snack&shop,49.72745271536323,6.491780991781783,,LU,Mertert,Gréiwemaacher,Lëtzebuerg,"Mertert, Lëtzebuerg",,,None,,,Grevenmacher,Professional & Other Places
774,4be09e374c55b651007eeab7,Hotel Alt Conz Konz,49.694245819254654,6.574857331072446,,DE,Konz,Rheinland-Pfalz,Deutschland,"Gartenstrasse 8, Konz, Deutschland",Gartenstrasse 8,,None,,,Grevenmacher,Professional & Other Places
791,4b586897f964a5206c5628e3,Restaurant Chinois Huang-Go,49.67735319298308,6.4441433963636845,6794,LU,Gréiwemaacher,Gréiwemaacher,Lëtzebuerg,"16 route du Vin, 6794 Gréiwemaacher, Lëtzebuerg",16 route du Vin,,None,,,Grevenmacher,Professional & Other Places
794,596edeed10345b123cd888ff,Pehna's Restaurant,49.6700307,6.434771899999999,54441,DE,Wellen,Rheinland-Pfalz,Deutschland,"Moselstr. 8-9, 54441 Wellen, Deutschland",Moselstr. 8-9,,None,,,Grevenmacher,Professional & Other Places
825,56fd58d8498e5fe72859996d,Henrys Restaurant und Feinkost,49.6049421,6.5403182000000015,54439,DE,Saarburg,Rheinland-Pfalz,Deutschland,"Graf-Siegfried-Str. 86, 54439 Saarburg, Deutschland",Graf-Siegfried-Str. 86,,None,173324862,,Grevenmacher,Professional & Other Places
828,5550c714498eafc260ae63fe,Fährhaus Restaurant&cafe Saarburg,49.608808516737426,6.5557050704956055,54439,DE,Saarburg,Rheinland-Pfalz,Deutschland,"Staden 41, 54439 Saarburg, Deutschland",Staden 41,,None,381066068,,Grevenmacher,Professional & Other Places
831,537648bf11d25a45ad273aa5,Café - Restaurant Weydert,49.784583,6.473568,,LU,,,Lëtzebuerg,Lëtzebuerg,,,None,,,Echternach,Professional & Other Places
999,4cd7d27f3ec4b1f79342bb3f,Sportshall Op Acker,49.56522715388824,5.9038733699675765,,LU,,,Lëtzebuerg,Lëtzebuerg,,,None,,,Differdange,Professional & Other Places
1084,4bd8ac7d2ecdce7212e8d0f2,Hotel De Klenge Casino Differdange,49.52269223098094,5.8876276833022825,,LU,Déifferdeng,Lëtzebuerg,Lëtzebuerg,"12 Place Du Marche, Déifferdeng, Lëtzebuerg",12 Place Du Marche,,None,,,Differdange,Professional & Other Places
1155,4d2b61698292236a439e33bb,Sportshal Consdorf,49.7793,6.34011,,LU,,,Lëtzebuerg,Lëtzebuerg,,,None,,,Echternach,Professional & Other Places
1172,502bbf93e4b0e9857bff33b1,Parking begin wandelpad Berdorf - Echternach,49.8134,6.3485,,LU,Berdorf,Gréiwemaacher,Lëtzebuerg,"Berdorf, Lëtzebuerg",,,None,,,Echternach,Professional & Other Places
1173,4bcf6d300ffdce725c77b2c0,Hotel Du Commerce Echternach,49.812572479248,6.420234203339,,LU,Iechternach,Gréiwemaacher,Lëtzebuerg,"16 Place du Marche, Iechternach, Lëtzebuerg",16 Place du Marche,,None,,,Echternach,Professional & Other Places
1182,4bc8ba62c1c6eee1d3defd92,Aigle Noir Hotel Echternach,49.815467834473,6.416959762573,,LU,Iechternach,Gréiwemaacher,Lëtzebuerg,"54 Rue De La Gare, Iechternach, Lëtzebuerg",54 Rue De La Gare,,None,,,Echternach,Professional & Other Places
1192,4bd8ac4c2ecdce72e1e7d0f2,Hotel Schumacher Weilerbach (Luxembourg),49.832777733268685,6.384149310332148,,LU,Weilerbach,Gréiwemaacher,Lëtzebuerg,"1 Rue De Diekirch, Weilerbach (Luxembourg), Lëtzebuerg",1 Rue De Diekirch,,None,,,Echternach,Professional & Other Places
1378,4d989559b188721e7df52a37,Hotel Oranienburg - Restaurant Le Chatelain,49.598587,6.097196,9411,LU,Veianen,Dikrech,Lëtzebuerg,"126 grand-rue, 9411 Veianen, Lëtzebuerg",126 grand-rue,,None,,,Luxembourg City,Professional & Other Places
1401,4cd072cff6378cfa023fb5d6,Gigi Restaurant,49.476178,6.079104,,LU,,,Lëtzebuerg,Lëtzebuerg,,,None,,,Dudelange,Professional & Other Places
1565,4d31eef38250f04de1a2eee0,Restaurant Le Pigeonnier,49.5703848853501,5.916708062879478,,LU,,,Lëtzebuerg,Lëtzebuerg,,,None,,,Differdange,Professional & Other Places
1670,4bc8ba6dc1c6eee1e0defd92,Hotel Du Chateau Larochette,49.78389,6.22004,,LU,Larochette,Lëtzebuerg,Lëtzebuerg,"1 Rue De Medernach, Larochette, Lëtzebuerg",1 Rue De Medernach,,None,,,Diekirch,Professional & Other Places
3,5cfbea3298fbfc002cb5bc0e,Nuit Du Sport Esch-Sauer 2019 - Site Heischent,49.887808,5.981035,9157,LU,Heiderscheid,Dikrech,Lëtzebuerg,"9157 Heiderscheid, Lëtzebuerg",,,Sporting Event,,,Wiltz,Outdoors & Recreation
4,51c35345498eb21fe53e3056,Taverne des Sports,50.05481501331971,6.024185188927504,,LU,,,Lëtzebuerg,Lëtzebuerg,,,Sports Bar,,,Wiltz,Nightlife Spot
475,5c1a7971e97dfb002d134b7d,Café Des Sports,49.641373,6.130722,1220,LU,Lëtzebuerg,Lëtzebuerg,Lëtzebuerg,"1220 Lëtzebuerg, Lëtzebuerg",,,Sports Bar,,,Luxembourg City,Nightlife Spot
5,502e138de4b045d78f3593ad,Ardennes 44 Museum,49.98364296818776,5.833511767126845,6600,BE,Bastogne,Luxembourg,Belgique,"Bras 635, 6600 Bastogne, Belgique",Bras 635,,History Museum,,,Wiltz,Arts & Entertainment
6,5af6e0a228374e002cd06385,w.o.1 museum,50.061926,6.016499,9706,LU,Cliärref,Dikrech,Lëtzebuerg,"9706 Cliärref, Lëtzebuerg",,,History Museum,,,Wiltz,Arts & Entertainment
97,4babf4d2f964a52014d93ae3,National Museum of Military History,49.870904,6.159804,9209,LU,Dikrech,Dikrech,Lëtzebuerg,"10, Bamertal, 9209 Dikrech, Lëtzebuerg","10, Bamertal",,History Museum,,,Diekirch,Arts & Entertainment
98,517d0e43e4b0c51901516f1c,Diekirch Historical Museum,49.870981,6.159265,,LU,,,Lëtzebuerg,Lëtzebuerg,,,History Museum,,,Diekirch,Arts & Entertainment
99,56aa2ae3498e8757cc3613f2,historisch museum,49.868895,6.161718,,LU,,,Lëtzebuerg,Lëtzebuerg,,,History Museum,,,Diekirch,Arts & Entertainment
338,531b2773498e76c19f1efbb8,Museum Römische Villa Nennig,49.529121,6.38343,66706,DE,Perl,Saarland,Deutschland,"Römerstr. 11, 66706 Perl, Deutschland",Römerstr. 11,,History Museum,,,Remich,Arts & Entertainment
339,4e4ea7758877402b06b857d6,Musée européen Schengen,49.470838976007165,6.366685952121379,5444,LU,Gemeng Schengen,Gréiwemaacher,Lëtzebuerg,"6, rue Robert Goebbels, 5444 Gemeng Schengen, Lëtzebuerg","6, rue Robert Goebbels",,History Museum,,,Remich,Arts & Entertainment
863,4dc7cc86ae608779d172788d,General Patton Memorial Museum,49.84878382102761,6.104130248179105,L-9054,LU,Ettelbruck,Dikrech,Lëtzebuerg,"5 Rue Dr. Klein, L-9054 Ettelbruck, Lëtzebuerg",5 Rue Dr. Klein,,History Museum,,,Ettelbruck,Arts & Entertainment
7,5793f4ae498ee25369885ecd,WaterArt Festival 2016,49.900712,5.86878,,LU,Esch an der Sauer,Dikrech,Lëtzebuerg,"Esch an der Sauer, Lëtzebuerg",,,Festival,,,Wiltz,Event
8,5016cda4e4b097af8b92a9ce,Ferronnerie d'Art Charel Steichen,49.91971206665039,6.0872039794921875,,LU,Scheidel,Dikrech,Lëtzebuerg,"Haabtstrooss, Scheidel, Lëtzebuerg",Haabtstrooss,,Design Studio,,,Ettelbruck,Shop & Service
533,5a0dc0803af9882715ba34a7,Patrice Parisotto Design Shop,49.613464,6.1297913,1313,LU,Lëtzebuerg,Lëtzebuerg,Lëtzebuerg,"2a Rue de Capucins, 1313 Lëtzebuerg, Lëtzebuerg",2a Rue de Capucins,,Design Studio,,,Luxembourg City,Shop & Service
9,59ce93cd9b047349915c728b,Gl'amour The Love Shop S@W SARL,49.9667417,5.919092299999988,9511,LU,Wolz,Dikrech,Lëtzebuerg,"rue Aneschbach, 9511 Wolz, Lëtzebuerg",rue Aneschbach,,Health & Beauty Service,454049776,,Wiltz,Shop & Service
342,563bb394cd100faf0e112998,Beauty Art,49.570067010256764,6.225592113103394,,LU,,,Lëtzebuerg,Lëtzebuerg,,,Health & Beauty Service,,,Luxembourg City,Shop & Service
1297,5e6975254fc6e30008cbe775,Camille Legendre Makeup artist,49.5886856,6.1096887,1464,LU,Lëtzebuerg,Lëtzebuerg,Lëtzebuerg,"11 Rue Friedrich Wilhelm Engelhardt, 1464 Lëtzebuerg, Lëtzebuerg",11 Rue Friedrich Wilhelm Engelhardt,,Health & Beauty Service,574128766,,Luxembourg City,Shop & Service
10,527cb222498e3e51e9d38189,Proximus - Tango Shop,49.963457930603475,5.857617535997587,9638,LU,Pommerloch,Dikrech,Lëtzebuerg,"19, Route de Bastogne (Knauf Center), 9638 Pommerloch, Lëtzebuerg","19, Route de Bastogne",Knauf Center,Mobile Phone Shop,,,Wiltz,Shop & Service
553,51a9b424498e976a53476e6a,Luxgsm Shop Kirchberg,49.627459,6.16281,,LU,,,Lëtzebuerg,Lëtzebuerg,,,Mobile Phone Shop,,,Luxembourg City,Shop & Service
750,4e133df72fb6744af78f237a,Telekom Shop,49.69904100000001,6.5742878601188295,54329,DE,Konz,Rheinland-Pfalz,Deutschland,"Schillerarkaden 11, Schillerarkaden, 54329 Konz, Deutschland","Schillerarkaden 11, Schillerarkaden",,Mobile Phone Shop,479446052,,Grevenmacher,Shop & Service
1023,59f471d525ecca5f1cf0d781,Orange Smart Shop,49.52076,5.8920674,,LU,Déifferdeng,Lëtzebuerg,Lëtzebuerg,"Déifferdeng, Lëtzebuerg",,,Mobile Phone Shop,,,Differdange,Shop & Service
1480,51158bdbb0b9b152e124581c,Orange Shop,49.61355359369687,5.811994670985897,6780,BE,Messancy,Luxembourg,Belgique,"Route d'Arlon 220, 6780 Messancy, Belgique",Route d'Arlon 220,,Mobile Phone Shop,,,Differdange,Shop & Service
12,5d85f0cddcfa830008e3cf04,Luxbikes Shop,49.97632807,5.84456635,9647,LU,Donkels,Dikrech,Lëtzebuerg,"Bohey 36, 9647 Donkels, Lëtzebuerg",Bohey 36,,Bike Shop,565270397,,Wiltz,Shop & Service
232,5d8b68d6f1c1fd00086bc177,Dream Bike Shop,49.51917,6.100685,3236,LU,Bettembourg,Lëtzebuerg,Lëtzebuerg,"3236 Bettembourg, Lëtzebuerg",,,Bike Shop,,,Dudelange,Shop & Service
439,4fec7145e4b028a3dbfcfcc5,Velo Sport Center,49.602824,6.134661,L-1260,LU,Lëtzebuerg,Lëtzebuerg,Lëtzebuerg,"19, rue de Bonnevoie (rue du Fort Neipperg), L-1260 Lëtzebuerg, Lëtzebuerg","19, rue de Bonnevoie",rue du Fort Neipperg,Bike Shop,,,Luxembourg City,Shop & Service
560,4db28a895da3944066b9f8b5,Ostergaard's Bike Shop Sàrl,49.731026,6.121763,7540,LU,Rollingen,Lëtzebuerg,Lëtzebuerg,"179 route De Luxembourg, 7540 Rollingen, Lëtzebuerg",179 route De Luxembourg,,Bike Shop,,,Ettelbruck,Shop & Service
840,4fae8090e4b091b462ba6538,L.S. Sports,49.828735,6.094931,9122,LU,Schieren,Dikrech,Lëtzebuerg,"27 rue de la gare, 9122 Schieren, Lëtzebuerg",27 rue de la gare,,Bike Shop,,,Ettelbruck,Shop & Service
14,5e86b8280e151f0007b8fb0e,Urban 13 Tattoo&Piercing Shop,50.053747,6.029479,9709,LU,Cliärref,Dikrech,Lëtzebuerg,"4 route De Marnach, 9709 Cliärref, Lëtzebuerg",4 route De Marnach,,Tattoo Parlor,,,Wiltz,Shop & Service
208,4dcd422c45ddbe15f86ae481,Extreme Art,49.507150507361224,5.9894878518380255,,LU,Esch-Uelzecht,Lëtzebuerg,Lëtzebuerg,"Esch-Uelzecht, Lëtzebuerg",,,Tattoo Parlor,,,Esch-sur-Alzette,Shop & Service
568,4e01cb5dae609fa8ede36aa4,Inktologie Tattoo Shop,49.620528,6.068357,,LU,Strassen,Lëtzebuerg,Lëtzebuerg,"182, rte d'Arlon, Strassen, Lëtzebuerg","182, rte d'Arlon",,Tattoo Parlor,,,Luxembourg City,Shop & Service
15,4e4283301838ada3db5dd1eb,Shoppi,50.053284524999995,6.031144625,9710,LU,Cliärref,Dikrech,Lëtzebuerg,"Grand Rue, 9710 Cliärref, Lëtzebuerg",Grand Rue,,Convenience Store,,,Wiltz,Shop & Service
227,4e79be4b62e1645552f5adad,Shopi ottange,49.427608489990234,6.0126872062683105,,FR,,,France,France,,,Convenience Store,,,Rumelange,Shop & Service
547,56af548e498e2043f7e97427,Shoppi,49.611171329543225,6.126722223514965,,LU,Lëtzebuerg,Lëtzebuerg,Lëtzebuerg,"Lëtzebuerg, Lëtzebuerg",,,Convenience Store,,,Luxembourg City,Shop & Service
16,5e4e69de9cab82000861679c,Nordstrooss Shopping Mile Marnach,50.053221,6.061249,9764,LU,Marnach,Dikrech,Lëtzebuerg,"2 Marbuergerstrooss, 9764 Marnach, Lëtzebuerg",2 Marbuergerstrooss,,Department Store,,,Wiltz,Shop & Service
17,5aeee13fa5a315002c432d91,Park Sënnesräich,50.058712,5.939968,9762,LU,Wincrange,Округ Дикирш,Lëtzebuerg,"9762 Wincrange, Lëtzebuerg",,,Park,,,Wiltz,Outdoors & Recreation
237,4e854eac0aafb440081f9921,Park Ouerbett,49.485033311902875,6.040942397849978,,LU,Keel,Lëtzebuerg,Lëtzebuerg,"Keel, Lëtzebuerg",,,Park,,,Rumelange,Outdoors & Recreation
580,5d0bf95c44627d0023b98c99,Monterey Park,49.609066,6.124199,2132,LU,Luxembourg,Okres Luxemburg,Lëtzebuerg,"2132 Luxembourg, Lëtzebuerg",,,Park,,,Luxembourg City,Outdoors & Recreation
584,4f2567a9e4b0d609c782c36e,Park Laval,49.62819623066069,6.133431563241398,,LU,,,Lëtzebuerg,Lëtzebuerg,,,Park,,,Luxembourg City,Outdoors & Recreation
588,4b811e8ff964a5206d9730e3,Vallée de la Pétrusse,49.607003,6.130907,,LU,Lëtzebuerg,Lëtzebuerg,Lëtzebuerg,"Rue de la Semois (Grund), Lëtzebuerg, Lëtzebuerg",Rue de la Semois,Grund,Park,,,Luxembourg City,Outdoors & Recreation
607,4ba8dc94f964a52007f539e3,Parc de Merl,49.60602765084866,6.111969576957703,,LU,Lëtzebuerg,Lëtzebuerg,Lëtzebuerg,"rue de Bragance (rue Adolphe), Lëtzebuerg, Lëtzebuerg",rue de Bragance,rue Adolphe,Park,,,Luxembourg City,Outdoors & Recreation
888,4da24575d686b60cf29ab628,Colmar Park,49.81036719388107,6.091103553771972,,LU,Colmar-Berg,Lëtzebuerg,Lëtzebuerg,"8 Enneschte Wee, Colmar-Berg, Lëtzebuerg",8 Enneschte Wee,,Park,,,Ettelbruck,Outdoors & Recreation
891,4ed683f630f813e77b09313d,Park Mersch,49.74589223020748,6.105737686157227,,LU,Miersch,Lëtzebuerg,Lëtzebuerg,"Miersch, Lëtzebuerg",,,Park,,,Ettelbruck,Outdoors & Recreation
1054,4de1171fc65bcc724f4f8d40,Differdange Park,49.524083707731045,5.88991976331808,4556,LU,Déifferdeng,Lëtzebuerg,Lëtzebuerg,"4556 Déifferdeng, Lëtzebuerg",,,Park,,,Differdange,Outdoors & Recreation
18,520e62d011d2837f7bc21d46,Neunhausen park,49.876243,5.885815,,LU,Neunhausen,Dikrech,Lëtzebuerg,"Neunhausen, Lëtzebuerg",,,Garden,,,Wiltz,Outdoors & Recreation
19,4e2945fc483baa86515dea87,Parking ABTEI,50.057696590147614,6.022276659004425,,LU,,,Lëtzebuerg,Lëtzebuerg,,,Parking,,,Wiltz,Professional & Other Places
93,4f83d821e4b08afde204336a,Parking Sporthotel Leweck,49.9231810491816,6.092219360678002,,LU,,,Lëtzebuerg,Lëtzebuerg,,,Parking,,,Ettelbruck,Professional & Other Places
108,5d444a3fcaedea00089a5a15,Camper Parking Vianden,49.931076,6.217561,,LU,,,Lëtzebuerg,Lëtzebuerg,,,Parking,,,Vianden,Professional & Other Places
110,501798c1e4b011b35ed4adce,Parking Esplanade,49.87021085769029,6.1598639817281535,,LU,Dikrech,Dikrech,Lëtzebuerg,"Rue Du Moulin, Dikrech, Lëtzebuerg",Rue Du Moulin,,Parking,,,Diekirch,Professional & Other Places
112,55de11c6498e508e96e65ff1,Parking camping um Willspull,49.887884,6.095593,,LU,Michelau,Dikrech,Lëtzebuerg,"Michelau, Lëtzebuerg",,,Parking,,,Ettelbruck,Professional & Other Places
190,5e78c2160cfd1c0008c198c8,BePark University of Luxembourg,49.50567673671588,5.948002338409424,4369,LU,Esch-Uelzecht,Lëtzebuerg,Lëtzebuerg,"Boulevard des Lumières, 4, 4369 Esch-Uelzecht, Lëtzebuerg","Boulevard des Lumières, 4",,Parking,,,Esch-sur-Alzette,Professional & Other Places
218,4e93cf9861afe52cf3736a89,parking beim Drink Shop,49.48078502704893,6.042353043516973,,LU,Keel,Lëtzebuerg,Lëtzebuerg,"Keel, Lëtzebuerg",,,Parking,,,Rumelange,Professional & Other Places
242,57404a4b498e011424453c21,Parking Neuiduerf,49.493965,5.992075,,LU,Esch-Uelzecht,Lëtzebuerg,Lëtzebuerg,"Neuiduerf, Esch-Uelzecht, Lëtzebuerg",Neuiduerf,,Parking,,,Esch-sur-Alzette,Professional & Other Places
244,5b2b4ec2e97dfb002c90876f,Parking Place De L’hotel De Ville,49.496433,5.984901,4132,LU,Esch-Uelzecht,Lëtzebuerg,Lëtzebuerg,"4132 Esch-Uelzecht, Lëtzebuerg",,,Parking,,,Esch-sur-Alzette,Professional & Other Places
245,4fb5ec8ae4b0332246377263,Escher Parkhaus,49.492325831953266,5.982823097299544,,LU,,,Lëtzebuerg,Lëtzebuerg,,,Parking,,,Esch-sur-Alzette,Professional & Other Places
248,4dea5e1cd22da22d4ed16b37,Belval Plaza Parking -1,49.50188982576136,5.945959228872982,,LU,Esch-Uelzecht,Lëtzebuerg,Lëtzebuerg,"Esch-Uelzecht, Lëtzebuerg",,,Parking,,,Esch-sur-Alzette,Professional & Other Places
249,5e7dfc4009454700077a3116,BePark Parking université du Luxembourg,49.502335939783805,5.9414175152778625,4367,LU,Suessem,Lëtzebuerg,Lëtzebuerg,"Avenue du Swing, 10-12, 4367 Suessem, Lëtzebuerg","Avenue du Swing, 10-12",,Parking,,,Esch-sur-Alzette,Professional & Other Places
586,549dd83e498e198131eb2753,Park Otopark,49.599647521972656,6.145724296569824,,LU,,,Lëtzebuerg,"1456, Lëtzebuerg",1456,,Parking,,,Luxembourg City,Professional & Other Places
587,4ba71951f964a520c58039e3,Parking Théâtre,49.61302068289433,6.130631782460387,1219,LU,Lëtzebuerg,Lëtzebuerg,Lëtzebuerg,"1 rue Beaumont, 1219 Lëtzebuerg, Lëtzebuerg",1 rue Beaumont,,Parking,,,Luxembourg City,Professional & Other Places
590,4baf0ba6f964a52085e83be3,Parking Guillaume II - Knuedler,49.61005504521452,6.130148696858215,2240,LU,Lëtzebuerg,Lëtzebuerg,Lëtzebuerg,"Parking Guillaume II (Knuedler), 2240 Lëtzebuerg, Lëtzebuerg",Parking Guillaume II,Knuedler,Parking,,,Luxembourg City,Professional & Other Places
591,4d11dd6d1483b1f79f6b913e,Parking Public Monterey,49.610304330674204,6.1242602793304295,,LU,Lëtzebuerg,Lëtzebuerg,Lëtzebuerg,"Avenue Monterey (Boulevard du Prince Henri), Lëtzebuerg, Lëtzebuerg",Avenue Monterey,Boulevard du Prince Henri,Parking,,,Luxembourg City,Professional & Other Places
592,4e044d0e149509caec714a6a,Parking Aldringen,49.61094052114246,6.126902082092071,,LU,Lëtzebuerg,Lëtzebuerg,Lëtzebuerg,"Lëtzebuerg, Lëtzebuerg",,,Parking,,,Luxembourg City,Professional & Other Places
593,4cac1c618882199cba9d46d4,Parking Boulevard Roosevelt,49.60929036140442,6.1297595500946045,2450,LU,Lëtzebuerg,Lëtzebuerg,Lëtzebuerg,"Boulevard Roosevelt, 2450 Lëtzebuerg, Lëtzebuerg",Boulevard Roosevelt,,Parking,,,Luxembourg City,Professional & Other Places
594,4d2467a98882a35df1e61338,Parking Royal Hamilius,49.610202436161984,6.126991510391235,,LU,Lëtzebuerg,Lëtzebuerg,Lëtzebuerg,"Lëtzebuerg, Lëtzebuerg",,,Parking,,,Luxembourg City,Professional & Other Places
595,4e8196f6775b16f4798681b7,Parking St. Esprit,49.60829957046747,6.1329455561942225,2450,LU,Lëtzebuerg,Lëtzebuerg,Lëtzebuerg,"8 Boulevard Franklin Delano Roosevelt, 2450 Lëtzebuerg, Lëtzebuerg",8 Boulevard Franklin Delano Roosevelt,,Parking,,,Luxembourg City,Professional & Other Places
597,4fae2711e4b0861eac84c0af,Parking des Martyres,49.60538405038193,6.129003751796427,,LU,,,Lëtzebuerg,Lëtzebuerg,,,Parking,,,Luxembourg City,Professional & Other Places
598,4d831a2eace28eecbda71097,Parking Fort Neipperg,49.602041671158545,6.134435319943939,2230,LU,Lëtzebuerg,Lëtzebuerg,Lëtzebuerg,"43 Rue du Fort Neipperg, 2230 Lëtzebuerg, Lëtzebuerg",43 Rue du Fort Neipperg,,Parking,,,Luxembourg City,Professional & Other Places
599,50f19035e4b0dfb0c1c3853f,Parking de Martyrs,49.604359678846116,6.129298599820031,,LU,,,Lëtzebuerg,Lëtzebuerg,,,Parking,,,Luxembourg City,Professional & Other Places
601,4d3974ed34ee370479a16c9b,Parking Brasserie,49.612031,6.142596,,LU,Lëtzebuerg,Lëtzebuerg,Lëtzebuerg,"Rives de Clausen, Lëtzebuerg, Lëtzebuerg",Rives de Clausen,,Parking,,Grund,Luxembourg City,Professional & Other Places
602,4ca9df89a643b713e79ce9a6,Parking Fort Wedell,49.59975228408328,6.129255294799805,,LU,Lëtzebuerg,Lëtzebuerg,Lëtzebuerg,"Rue du commerce, Lëtzebuerg, Lëtzebuerg",Rue du commerce,,Parking,,,Luxembourg City,Professional & Other Places
605,4e287bb462e17c33019e9b52,Parking Rocade,49.603311010444976,6.136658191680908,1911,LU,Lëtzebuerg,Lëtzebuerg,Lëtzebuerg,"Rue du Laboratoire, 1911 Lëtzebuerg, Lëtzebuerg",Rue du Laboratoire,,Parking,,,Luxembourg City,Professional & Other Places
608,5057576ae4b0c3ed2034ae79,Parking Schuman,49.617895643941054,6.124749086490273,,LU,,,Lëtzebuerg,Lëtzebuerg,,,Parking,,,Luxembourg City,Professional & Other Places
609,4cab36d2d971b1f723ea28e1,Parking Gare,49.602021332386926,6.134534109479325,,LU,,,Lëtzebuerg,Lëtzebuerg,,,Parking,,,Luxembourg City,Professional & Other Places
610,50e6a716e4b0ab43a255862d,Parking Nobilis,49.60250473022461,6.132344722747803,,LU,,,Lëtzebuerg,Lëtzebuerg,,,Parking,,Gare de Luxembourg,Luxembourg City,Professional & Other Places
612,521703bf11d2ce87442cc682,Parking Place de l'Europe,49.618895478793945,6.1431266596164305,,LU,,,Lëtzebuerg,Lëtzebuerg,,,Parking,,,Luxembourg City,Professional & Other Places
613,4fa28231e4b0793be59914cd,Parking CFL,49.5973805242447,6.132483749638053,1616,LU,,,Lëtzebuerg,"1, place de la Gare, 1616, Lëtzebuerg","1, place de la Gare",,Parking,,,Luxembourg City,Professional & Other Places
614,5dee6e3b752a9900080c5160,Parking gare du Luxembourg,49.60016949874782,6.135263442993164,2230,LU,Lëtzebuerg,Lëtzebuerg,Lëtzebuerg,"Rue du Fort Neipperg, 73, 2230 Lëtzebuerg, Lëtzebuerg","Rue du Fort Neipperg, 73",,Parking,,,Luxembourg City,Professional & Other Places
616,4cb7510f9c7ba35d6a3b9806,parking prive hollerich,49.59872985,6.126897225173082,,LU,,,Lëtzebuerg,Lëtzebuerg,,,Parking,,,Luxembourg City,Professional & Other Places
619,51fa0361498ec24a60b7237e,Parking Vinci Stade Josy Barthel,49.6148484913115,6.108496607142813,,LU,,,Lëtzebuerg,Lëtzebuerg,,,Parking,,,Luxembourg City,Professional & Other Places
621,4ec2aa436c25adc5b2c3d67c,Parking Ellipse,49.62710229557993,6.16063023795046,,LU,,,Lëtzebuerg,Lëtzebuerg,,,Parking,,,Luxembourg City,Professional & Other Places
622,4ee1cd23490152e4bc8ecb3b,Parking Auchan,49.63362081530363,6.169387301846249,,LU,,,Lëtzebuerg,"Auchan, Lëtzebuerg",Auchan,,Parking,,,Luxembourg City,Professional & Other Places
623,584517b4668af751c2a5ee20,parking EY,49.624542,6.162513,,LU,Lëtzebuerg,Lëtzebuerg,Lëtzebuerg,"Avenue JF Kennedy, Lëtzebuerg, Lëtzebuerg",Avenue JF Kennedy,,Parking,,,Luxembourg City,Professional & Other Places
625,50767a0be4b0731164cee066,Parking Coque,49.62739324763334,6.163258302836197,,LU,,,Lëtzebuerg,Lëtzebuerg,,,Parking,,,Luxembourg City,Professional & Other Places
757,5b3a363e0d173f002ca00b46,Park & Ride Wasserbillig Mesenich,49.725782,6.490555,,LU,Mertert,Gréiwemaacher,Lëtzebuerg,"Mertert, Lëtzebuerg",,,Parking,,,Grevenmacher,Professional & Other Places
763,5b951c7806fb60002c888109,City Parkplatz Saarburg,49.60667,6.5467196,,DE,Saarburg,Rheinland-Pfalz,Deutschland,"Saarburg, Deutschland",,,Parking,,,Grevenmacher,Professional & Other Places
887,4ec9194549010f98ce6c0233,Parking Deich,49.84451415940294,6.096192243312086,,LU,Ettelbruck,Dikrech,Lëtzebuerg,"Ettelbruck, Lëtzebuerg",,,Parking,,,Ettelbruck,Professional & Other Places
1061,4fe46204e4b05c33896b494a,Parking Monterey -5,49.56850011333157,6.082405568382537,,LU,,,Lëtzebuerg,Lëtzebuerg,,,Parking,,,Luxembourg City,Professional & Other Places
1166,5a032ac558aa7f47e0dec287,Park & Ride Echternach Grenzübergang,49.814327,6.435404,,DE,,,Deutschland,Deutschland,,,Parking,,,Echternach,Professional & Other Places
1167,4dadb0fd8154b108fec3fc82,Parking Gare Echternach,49.81616298592413,6.415451428922109,,LU,Iechternach,Gréiwemaacher,Lëtzebuerg,"Iechternach, Lëtzebuerg",,,Parking,,,Echternach,Professional & Other Places
1168,4dba58d4f7b144688ff77b03,Parking Um See Echternoach,49.805324872827775,6.407754421234131,,LU,Iechternach,Gréiwemaacher,Lëtzebuerg,"Iechternach, Lëtzebuerg",,,Parking,,,Echternach,Professional & Other Places
1171,5d21fa517ad19400238fc8e2,Parkplatz Irreler Wasserfälle,49.854485,6.4471645,,DE,,,Deutschland,Deutschland,,,Parking,,,Echternach,Professional & Other Places
20,4cdbf5e099026dcbd60a1081,Hotel Restaurant Du Vieux Chateau,49.9662138827595,5.937164540093375,9560,LU,Wolz,Dikrech,Lëtzebuerg,"9560 Wolz, Lëtzebuerg",,,French Restaurant,,,Wiltz,Food
69,4c66c24f9cedd13ace8f76a1,Restaurant Comte Godefroy,49.91194650543693,5.9344300150061065,9650,LU,Esch-sur-Sûre,Dikrech,Lëtzebuerg,"1, Rue du Pont, 9650 Esch-sur-Sûre, Lëtzebuerg","1, Rue du Pont",,French Restaurant,,,Wiltz,Food
75,559d6c6d498e44e5e3e59541,Restaurant du Chateau de Clervaux,50.053968,6.030638,,LU,,,Lëtzebuerg,Lëtzebuerg,,,French Restaurant,,,Wiltz,Food
83,4eae893cf5b936710bebcde0,Les Arcades Restaurant,50.05351040688078,6.030719567278869,,LU,Cliärref,Dikrech,Lëtzebuerg,"Montée Du Château, Cliärref, Lëtzebuerg",Montée Du Château,,French Restaurant,,,Wiltz,Food
158,56f82b44498ecb5f2c68597f,Restaurant Belle Vue,49.934044,6.211173,,LU,,,Lëtzebuerg,Lëtzebuerg,,,French Restaurant,,,Vianden,Food
174,53495dec498e2eb1c6427192,Restaurant La Rivière,49.864593505859375,6.1545562744140625,,LU,Dikrech,Dikrech,Lëtzebuerg,"Avenue de la Gare, Dikrech, Lëtzebuerg",Avenue de la Gare,,French Restaurant,,,Diekirch,Food
241,4b75ba17f964a52023202ee3,Restaurant Club 5 am Park,49.49987114453488,5.977905908551857,,LU,Esch-Uelzecht,Lëtzebuerg,Lëtzebuerg,"Place des Sacrifiés, Esch-Uelzecht, Lëtzebuerg",Place des Sacrifiés,,French Restaurant,,,Esch-sur-Alzette,Food
296,505321f4e4b0e5434bc2f6aa,Restaurant 1900,49.479201,6.08573,,LU,,,Lëtzebuerg,Lëtzebuerg,,,French Restaurant,,,Dudelange,Food
300,4c7a348abd346dcbf3e0f7ef,Restaurant Parc Le'h,49.486372166695105,6.0996579011035745,3471,LU,Diddeleng,Lëtzebuerg,Lëtzebuerg,"1, rue de la Forêt, 3471 Diddeleng, Lëtzebuerg","1, rue de la Forêt",,French Restaurant,,,Dudelange,Food
302,4c5874d8d12a20a1d11469bd,Restaurant Postkutsch,49.493101934068605,5.980048418208097,,LU,Esch-Uelzecht,Lëtzebuerg,Lëtzebuerg,"Esch-Uelzecht, Lëtzebuerg",,,French Restaurant,,,Esch-sur-Alzette,Food
303,4e53f85822711d4da5c32520,Restaurant Le Provençale,49.49112,5.97917,,LU,Esch-Uelzecht,Lëtzebuerg,Lëtzebuerg,"Esch-Uelzecht, Lëtzebuerg",,,French Restaurant,,,Esch-sur-Alzette,Food
321,4c06c2a18b4520a130e88597,Restaurant La Lorraine,49.46337575896103,6.139605904862653,57330,FR,Zoufftgen,Lorraine,France,"80 rue Principale, 57330 Zoufftgen, France",80 rue Principale,,French Restaurant,,,Dudelange,Food
373,5e5f36c79d37090008f1579e,Restaurant le Nid Gourmand - Hôtel Beau Séjour,49.50395,6.279825,5630,LU,Mondorf-les-Bains,Gréiwemaacher,Lëtzebuerg,"3 avenue Dr Klein, 5630 Mondorf Les Bains, Lëtzebuerg",3 avenue Dr Klein,,French Restaurant,,,Remich,Food
377,4fb8cdc5e4b04abe15bf5e40,Restaurant de l'Hôtel du Grand Chef,49.50168524108804,6.281568777734498,,LU,,,Lëtzebuerg,Lëtzebuerg,,,French Restaurant,,,Remich,Food
383,4d98b544af3d236ad9a742c7,Restaurant Lohengrin,49.545453475965104,6.370579118737722,,LU,,,Lëtzebuerg,Lëtzebuerg,,,French Restaurant,,,Remich,Food
390,507aaa16e4b047ff2c72082d,Restaurant A Schmatten,49.540510050860085,6.284276658849768,5698,LU,Welfrange,Gréiwemaacher,Lëtzebuerg,"1 Saangewee, 5698 Welfrange, Lëtzebuerg",1 Saangewee,,French Restaurant,,,Remich,Food
400,4e465605b0fb93df27079132,Restaurant Cordel,49.46992779369561,6.286414989357552,,FR,Beyren-lès-Sierck,Lorraine,France,"Beyren-lès-Sierck, France",,,French Restaurant,,,Remich,Food
401,4dd553e81f6ec4e0bb8eb408,Restaurant Mathes,49.62848036727475,6.424121208045558,5401,LU,Ahn,Gréiwemaacher,Lëtzebuerg,"37 route du Vin, 5401 Ahn, Lëtzebuerg",37 route du Vin,,French Restaurant,,,Grevenmacher,Food
402,501c0806e4b02f1fd3e32eaa,Restaurant L'Orchidee,49.44932789966528,6.350289404994477,,FR,,,France,France,,,French Restaurant,,,Remich,Food
403,5380a156498ea6ffdcfcb2a8,restaurant la vieille porte,49.43893814086914,6.34344482421875,,FR,,,France,France,,,French Restaurant,,,Remich,Food
405,52c3f8d2498eedc298883696,La Vieille Porte,49.49519793847326,6.365758118854445,57480,FR,,Lorraine,France,"2 grand Rue, 57480, France",2 grand Rue,,French Restaurant,,,Remich,Food
514,4bf6e3285317a5931a06fd7e,Chez D'Artagnan,49.607627767064635,6.142326508981787,,LU,Lëtzebuerg,Lëtzebuerg,Lëtzebuerg,"General patton, Lëtzebuerg, Lëtzebuerg",General patton,,French Restaurant,,,Luxembourg City,Food
654,50db034ee4b0ca0bab9c470d,Brasserie Royal Hotel,49.613971,6.126097,,LU,Lëtzebuerg,Lëtzebuerg,Lëtzebuerg,"Lëtzebuerg, Lëtzebuerg",,,French Restaurant,,,Luxembourg City,Food
676,4be29ef9b02ec9b6ef3f4dc0,Restaurant Brasserie du Cercle,49.611345482474626,6.129533657061539,1313,LU,Lëtzebuerg,Lëtzebuerg,Lëtzebuerg,"Rue des Capucins 2A, 1313 Lëtzebuerg, Lëtzebuerg",Rue des Capucins 2A,,French Restaurant,,,Luxembourg City,Food
679,4e4fabc81f6eae4d251c9817,Restaurant Cyrano,49.60379032643811,6.136799604364855,1911,LU,Lëtzebuerg,Lëtzebuerg,Lëtzebuerg,"22 rue du Laboratoire (Rue des trevires), 1911 Lëtzebuerg, Lëtzebuerg",22 rue du Laboratoire,Rue des trevires,French Restaurant,,,Luxembourg City,Food
683,4c7105b93444370490ca255f,Restaurant Rabelais,49.61130779222004,6.129430489290491,,LU,Lëtzebuerg,Lëtzebuerg,Lëtzebuerg,"Place d'Armes, Lëtzebuerg, Lëtzebuerg",Place d'Armes,,French Restaurant,,Ville-Haute,Luxembourg City,Food
688,4c488e4a0f5aa59327a68176,Restaurant Carpini,49.60368333972666,6.131437129994765,,LU,,,Lëtzebuerg,Lëtzebuerg,,,French Restaurant,,,Luxembourg City,Food
698,570644cf498e1e8f95909106,Restaurant Montmartre,49.603645,6.131788,1463,LU,Lëtzebuerg,Lëtzebuerg,Lëtzebuerg,"29 Rue du Fort Elisabeth, 1463 Lëtzebuerg, Lëtzebuerg",29 Rue du Fort Elisabeth,,French Restaurant,,,Luxembourg City,Food
711,4cbd85f1bac93704406efe7c,Restaurant Les Thermes,49.60675,6.055631,8018,LU,Strassen,Lëtzebuerg,Lëtzebuerg,"Rue des Thermes, 8018 Strassen, Lëtzebuerg",Rue des Thermes,,French Restaurant,,,Luxembourg City,Food
716,4c481d3876d72d7fa63c3f4d,Restaurant La Coquille (d'Coque),49.62338881843843,6.152429580688477,1745,LU,Lëtzebuerg,Lëtzebuerg,Lëtzebuerg,"2 r. Léon Hengen, 1745 Lëtzebuerg, Lëtzebuerg",2 r. Léon Hengen,,French Restaurant,,,Luxembourg City,Food
718,502785ffe4b040ed531fcb23,Restaurant Schéiss,49.612727955586564,6.104929300643765,L-1370,LU,Lëtzebuerg,Lëtzebuerg,Lëtzebuerg,"142, Val Sainte Croix, L-1370 Lëtzebuerg, Lëtzebuerg","142, Val Sainte Croix",,French Restaurant,,,Luxembourg City,Food
869,55a65928498e97694022989e,Restaurant-Taverne Arthur,49.84627487221374,6.0979230564062386,9066,LU,Ettelbruck,Dikrech,Lëtzebuerg,"1, rue Neuve, 9066 Ettelbrück, Lëtzebuerg","1, rue Neuve",,French Restaurant,,,Ettelbruck,Food
962,4bb8a02a98c7ef3b74393102,Restaurant „An de Nommerlayen“,49.78437795432519,6.165706515312195,7465,LU,Nommern,Lëtzebuerg,Lëtzebuerg,"rue Nommerlayen, 7465 Nommern, Lëtzebuerg",rue Nommerlayen,,French Restaurant,,,Diekirch,Food
967,52ab668a498e0a4d4f58c4b2,Restaurant La Bohême,49.75083411023691,6.106097330217798,7513,LU,Miersch,Lëtzebuerg,Lëtzebuerg,"2 route d'Arlon, 7513 Miersch, Lëtzebuerg",2 route d'Arlon,,French Restaurant,123748938,,Ettelbruck,Food
1224,52eb88cf11d27db4d3699185,Restaurant l'Iris,49.812324189355124,6.419166998806806,,LU,,,Lëtzebuerg,Lëtzebuerg,,,French Restaurant,,,Echternach,Food
1232,5e1c31dbbb134f0007d1bfc6,Aal Restaurant-Brasserie Eechtenoach (Rude Mood),49.812891,6.420375,6460,LU,Iechternach,Gréiwemaacher,Lëtzebuerg,"38 place Du Marché, 6460 Iechternach, Lëtzebuerg",38 place Du Marché,,French Restaurant,,,Echternach,Food
1236,55ad32d8498e608ea5e57a03,restaurant lac au eden,49.804215,6.405211,,LU,,,Lëtzebuerg,Lëtzebuerg,,,French Restaurant,,,Echternach,Food
1238,4c0c07cbbbc676b01d764cd5,la grappe d'or,49.81172696195462,6.418968532801131,6450,LU,Iechternach,Gréiwemaacher,Lëtzebuerg,"Route de Luxembourg 7, 6450 Iechternach, Lëtzebuerg",Route de Luxembourg 7,,French Restaurant,,,Echternach,Food
1423,513f736ce4b0103ac860cee7,Restaurant Méckenheck,49.53209789798975,6.123402206789156,,LU,,,Lëtzebuerg,Lëtzebuerg,,,French Restaurant,,,Dudelange,Food
1558,5e3d04adba5bc40008e6ce4e,Restaurant Wax,49.560316,5.871235,4732,LU,Péiteng,Lëtzebuerg,Lëtzebuerg,"4732 Péiteng, Lëtzebuerg",,,French Restaurant,,,Differdange,Food
22,54d23af6498e6d4c8d531a81,Wellness Hotel Wiltz,49.97020923171734,5.932894846221602,,LU,Wolz,Dikrech,Lëtzebuerg,"Rue Jos Simons, Wolz, Lëtzebuerg",Rue Jos Simons,,Hotel,,,Wiltz,Travel & Transport
24,4e845ae4e5fa2e2852b6dc3c,Hotel Braas,49.88369321641301,5.938448220643611,9150,LU,Eschdorf,Dikrech,Lëtzebuerg,"1, An Haesbich, 9150 Eschdorf, Lëtzebuerg","1, An Haesbich",,Hotel,,,Wiltz,Travel & Transport
25,4bc8ba58c1c6eee1cadefd92,Hotel Koener,50.05333901177099,6.03094830957088,9710,LU,Cliärref,Dikrech,Lëtzebuerg,"14 Grand Rue, 9710 Cliärref, Lëtzebuerg",14 Grand Rue,,Hotel,,,Wiltz,Travel & Transport
26,4bcf395e0ffdce72f348b2c0,Hotel International,50.05341965341439,6.030396589929325,9710,LU,Cliärref,Dikrech,Lëtzebuerg,"10, Grand Rue, 9710 Cliärref, Lëtzebuerg","10, Grand Rue",,Hotel,,,Wiltz,Travel & Transport
28,57d70237498ededcd202bbb7,Hotel Welter,49.935755,5.980326,,LU,,,Lëtzebuerg,Lëtzebuerg,,,Hotel,,,Wiltz,Travel & Transport
29,5e44cd77f17d040007ed9209,Hôtel Pommerloch,49.964826,5.859813,9638,LU,Pommerloch,Dikrech,Lëtzebuerg,"2 Wohlber, 9638 Pommerloch, Lëtzebuerg",2 Wohlber,,Hotel,,,Wiltz,Travel & Transport
30,573f1e1dcd10883338df4f4f,Hotel Le Postillon,49.91018268717875,5.935256481170654,9650,LU,Lëtzebuerg,Lëtzebuerg,Lëtzebuerg,"1 rue de L'Eglise, 9650 Lëtzebuerg, Lëtzebuerg",1 rue de L'Eglise,,Hotel,,,Wiltz,Travel & Transport
34,4d676a15f23f37044c65c733,Hotel Bissen,49.9046689842758,5.956231070632491,,LU,,,Lëtzebuerg,Lëtzebuerg,,,Hotel,,,Wiltz,Travel & Transport
35,4bc77a5993bdeee1126d37ae,Cocoon Hotel Belair Bourscheid,49.908788091466185,6.0810342221201354,,LU,Bourscheid,Dikrech,Lëtzebuerg,"Bourscheid Plage, Bourscheid, Lëtzebuerg",Bourscheid Plage,,Hotel,,,Ettelbruck,Travel & Transport
36,4bd5f8f79649ce72d5c2511d,Hotel Dirbach Plage,49.92040006686046,6.037259481803115,,LU,Dirbach,Dikrech,Lëtzebuerg,"Dirbach, Dirbach, Lëtzebuerg",Dirbach,,Hotel,,,Ettelbruck,Travel & Transport
39,4e44f1c4b3ad4263a204253b,Logis Hôtel DE LA SÛRE,49.911887403239284,5.934638888111489,9650,LU,Esch-sur-Sûre,Dikrech,Lëtzebuerg,"1, Rue du Pont, 9650 Esch-sur-Sure, Lëtzebuerg","1, Rue du Pont",,Hotel,,,Wiltz,Travel & Transport
40,517d40b3498ee0b8d09f0200,Hotel des Ardennes,49.946313936316855,6.080559078058741,9376,LU,Hoscheid,Dikrech,Lëtzebuerg,"Haapstrooss 33, 9376 Hoscheid, Lëtzebuerg",Haapstrooss 33,,Hotel,,,Ettelbruck,Travel & Transport
43,51bc6d68498e763c0e51d62c,Hotel Le Claravallis,50.05953158851851,6.023925591679168,L-9707,LU,Cliärref,Dikrech,Lëtzebuerg,"3, Rue de la Gare, L-9707 Cliärref, Lëtzebuerg","3, Rue de la Gare",,Hotel,,,Wiltz,Travel & Transport
45,4f40ec4fe4b0daed433da512,Hotel du Moulin,49.9134598902115,6.088144395037645,,LU,,,Lëtzebuerg,Lëtzebuerg,,,Hotel,,,Ettelbruck,Travel & Transport
46,4bc8ba57c1c6eee1c9defd92,Hotel Des Nations Clervaux,50.061297873737274,6.024432818183969,9707,LU,Cliärref,Dikrech,Lëtzebuerg,"29, Rue De La Gare, 9707 Cliärref, Lëtzebuerg","29, Rue De La Gare",,Hotel,,,Wiltz,Travel & Transport
57,4bc77a5a93bdeee1136d37ae,St Fiacre Hotel Bourscheid,49.907206338241664,6.060527961766139,,LU,Bourscheid,Dikrech,Lëtzebuerg,"Groussgaass 4, Bourscheid, Lëtzebuerg",Groussgaass 4,,Hotel,,,Ettelbruck,Travel & Transport
58,57a8e31e498e9855f0d06fc4,suite 105 le clervaux hotel,50.053417,6.0303235,9710,LU,Cliärref,Dikrech,Lëtzebuerg,"9710 Cliärref, Lëtzebuerg",,,Hotel,,,Wiltz,Travel & Transport
62,4e2d60fa1f6ebe544266d0f3,Cocoon Hotel La Rive,49.911568658904955,6.083087360077349,9164,LU,Bourscheid-Plage,,Lëtzebuerg,"Rue Buurschter Plage, 9164 Bourscheid-Plage, Lëtzebuerg",Rue Buurschter Plage,,Hotel,,,Ettelbruck,Travel & Transport
87,4c7bc596278eb713346e6380,Sporthotel Leweck,49.9232256460454,6.0926710160494135,9378,LU,Lipperscheid,Dikrech,Lëtzebuerg,"Lepschter-Dellt, 9378 Lipperscheid, Lëtzebuerg",Lepschter-Dellt,,Hotel,,,Ettelbruck,Travel & Transport
92,579bbe70498ecf590545d7a4,Suite Sporthotel Leweck,49.92323,6.0921025,,LU,Lipperscheid,Dikrech,Lëtzebuerg,"Lipperscheid, Lëtzebuerg",,,Hotel,,,Ettelbruck,Travel & Transport
113,4bc8ba82c1c6eee1ecdefd92,"Hôtel-Restaurant ""Petry""",49.93389776039615,6.209393785703009,9420,LU,Veianen,Dikrech,Lëtzebuerg,"15, Rue de la Gare, 9420 Veianen, Lëtzebuerg","15, Rue de la Gare",,Hotel,,,Vianden,Travel & Transport
114,4db98f336e818f67a9c155e2,Hotel Heintz,49.93308287241383,6.20415268836213,9410,LU,Veianen,Dikrech,Lëtzebuerg,"55, Grand-rue, 9410 Veianen, Lëtzebuerg","55, Grand-rue",,Hotel,,,Vianden,Travel & Transport
116,4bcf0da60ffdce72ef38b2c0,Hotel Victor Hugo Vianden,49.93402618566669,6.207532132618657,,LU,Veianen,Dikrech,Lëtzebuerg,"1 Rue Victor Hugo, Veianen, Lëtzebuerg",1 Rue Victor Hugo,,Hotel,,,Vianden,Travel & Transport
119,4bcf0da50ffdce72ee38b2c0,Hotel Belle Vue Vianden,49.93398289103383,6.211055822406279,,LU,Veianen,Dikrech,Lëtzebuerg,"3 Rue De La Gare, Veianen, Lëtzebuerg",3 Rue De La Gare,,Hotel,,,Vianden,Travel & Transport
121,4d9736790caaa1435daf8bb3,Hôtel Restaurant Belvédère,49.93164715502004,6.201858122486682,9409,LU,Veianen,Dikrech,Lëtzebuerg,"4 rue de Diekirch, 9409 Veianen, Lëtzebuerg",4 rue de Diekirch,,Hotel,,,Vianden,Travel & Transport
122,4cc3056c01fb236af4c5a2ba,Hotel Oranienburg,49.93501522891877,6.2014107404840795,,LU,,,Lëtzebuerg,Lëtzebuerg,,,Hotel,,,Vianden,Travel & Transport
123,4dc56e3a7d8b14fb4629b6cb,Grand Hotel De Vianden,49.93428327708237,6.2103913526442796,,LU,Veianen,Dikrech,Lëtzebuerg,"Rue de la Gare, Veianen, Lëtzebuerg",Rue de la Gare,,Hotel,,,Vianden,Travel & Transport
125,4e20a87b88774a43b761bf47,Hotel Nagel,49.92874061461612,6.222096203018081,9415,LU,Veianen,Dikrech,Lëtzebuerg,"3, route de Bettel, 9415 Veianen, Lëtzebuerg","3, route de Bettel",,Hotel,,,Vianden,Travel & Transport
127,4d8b9a1d761e224b8f14c029,Hôtel-Restaurant Beau Séjour,49.870035887791374,6.159430821144861,9227,LU,Dikrech,Dikrech,Lëtzebuerg,"12 Esplanade, 9227 Dikrech, Lëtzebuerg",12 Esplanade,,Hotel,,,Diekirch,Travel & Transport
130,4e3c5c57814ddc29c4264450,Hotel Vauban,49.86851927251524,6.157960295677185,,LU,Lëtzebuerg,Lëtzebuerg,Lëtzebuerg,"Place Guillaume, Lëtzebuerg, Lëtzebuerg",Place Guillaume,,Hotel,,,Diekirch,Travel & Transport
133,4b9bd95ef964a520dd2c36e3,Hotel Dimmer,49.87420089138167,6.289782022723433,,LU,Wallerdorferbrück,,Lëtzebuerg,"4, Grenzwee, Wallerdorferbrück, Lëtzebuerg","4, Grenzwee",,Hotel,,,Vianden,Travel & Transport
137,524f243b11d25d7adf8ab20d,Hotel Haus Wallstein,49.87834621208899,6.289493679888421,54675,DE,Wallendorf,Rheinland-Pfalz,Deutschland,"Bergstrasse 23, 54675 Wallendorf, Deutschland",Bergstrasse 23,,Hotel,,,Vianden,Travel & Transport
138,4e74b13c1495be5170c526be,Hotel Restaurant Kickert,49.945401986694,6.332984431769294,,DE,Mettendorf,Rheinland-Pfalz,Deutschland,"Enztalstrasse 15, Mettendorf, Deutschland",Enztalstrasse 15,,Hotel,,,Vianden,Travel & Transport
139,579a40e1498ebe02c4fb2cb4,Hotel Leweck,49.92337,6.091253,,LU,Bourscheid,Dikrech,Lëtzebuerg,"Bourscheid, Lëtzebuerg",,,Hotel,,,Ettelbruck,Travel & Transport
140,5b6fefe1bfc6d0002c292186,Hotel Um Willspull,49.888313,6.094184,9171,LU,Michelau,Dikrech,Lëtzebuerg,"9171 Michelau, Lëtzebuerg",,,Hotel,,,Ettelbruck,Travel & Transport
143,52a9fc9a11d2aa69015201a5,Hotel Dahm,49.86119,6.11844,,LU,,,Lëtzebuerg,Lëtzebuerg,,,Hotel,,,Ettelbruck,Travel & Transport
146,4ddfd65afa76b3b0160966e1,Hotel du Parc,49.8659456951157,6.158620119763068,9233,LU,Dikrech,Dikrech,Lëtzebuerg,"28 Avenue de la Gare, 9233 Dikrech, Lëtzebuerg",28 Avenue de la Gare,,Hotel,,,Diekirch,Travel & Transport
153,501e4ddde4b0d9ad7af37c84,euvea Hotel,50.00805,6.296996,,DE,,,Deutschland,Deutschland,,,Hotel,,,Vianden,Travel & Transport
246,51c3807a498e1428ed1b21a3,ParkINN Hotel,49.53249740600586,6.1118645668029785,,LU,,,Lëtzebuerg,Lëtzebuerg,,,Hotel,,,Dudelange,Travel & Transport
253,50ec79b8e4b06f44bad361cb,Hotel seven,49.4838889,5.9861111,,LU,Esch-Uelzecht,Lëtzebuerg,Lëtzebuerg,"Galgebierg, Esch-Uelzecht, Lëtzebuerg",Galgebierg,,Hotel,,,Esch-sur-Alzette,Travel & Transport
255,4bc8ba5ec1c6eee1d0defd92,Hotel Restaurant Cottage Dudelange,49.47627131333479,6.0822647155150085,,LU,Diddeleng,Lëtzebuerg,Lëtzebuerg,"Rue Auguste Liesch, Diddeleng, Lëtzebuerg",Rue Auguste Liesch,,Hotel,,,Dudelange,Travel & Transport
259,4bc8597d15a7ef3bf6dc7ada,Hotel Mercure,49.495725,5.983268,,LU,,,Lëtzebuerg,Lëtzebuerg,,,Hotel,,,Esch-sur-Alzette,Travel & Transport
260,4ddac9e7e4cd1a49b7cf851b,Hotel De La Poste,49.493131834842245,5.979137583744704,,LU,Esch-Uelzecht,Lëtzebuerg,Lëtzebuerg,"Esch-Uelzecht, Lëtzebuerg",,,Hotel,,,Esch-sur-Alzette,Travel & Transport
261,4bd75663304fce729d6633ab,Hotel Restaurant Acacia Esch-sur-Alzette,49.49325945599216,5.981789616738721,,LU,Esch-Uelzecht,Lëtzebuerg,Lëtzebuerg,"10 Rue De la Liberation, Esch-Uelzecht, Lëtzebuerg",10 Rue De la Liberation,,Hotel,,,Esch-sur-Alzette,Travel & Transport
262,51963971498e8c6633a8e62a,hotel kreuz luzern,49.506717681884766,6.114353656768799,,LU,,,Lëtzebuerg,Lëtzebuerg,,,Hotel,,,Dudelange,Travel & Transport
263,4d03a942a2685481fa1db3bd,Hotel De Foetz,49.523071630107765,6.009790423117679,,LU,Foetz,Lëtzebuerg,Lëtzebuerg,"1, rue de l'Avenir, Foetz, Lëtzebuerg","1, rue de l'Avenir",,Hotel,,,Esch-sur-Alzette,Travel & Transport
265,4c9275a21221b1f756c611e2,Seven Hotel,49.48825,5.993613,,LU,,,Lëtzebuerg,Lëtzebuerg,,,Hotel,,,Esch-sur-Alzette,Travel & Transport
268,4bcf75d50ffdce726c81b2c0,Mercure Renaissance Hotel Luxembourg,49.4955807,5.9834146,,LU,Lëtzebuerg,Lëtzebuerg,Lëtzebuerg,"Place Boltgen 4044 Esch-sur-Alzette Luxembourg, Lëtzebuerg, Lëtzebuerg",Place Boltgen 4044 Esch-sur-Alzette Luxembourg,,Hotel,,,Esch-sur-Alzette,Travel & Transport
269,4be1b4bd8dd062b5b47e3e3c,The Seven Hotel Esch-sur-Alzette,49.48686247386355,5.984912096376564,,LU,Esch-Uelzecht,Lëtzebuerg,Lëtzebuerg,"50 Gaalgebierg, Esch-Uelzecht, Lëtzebuerg",50 Gaalgebierg,,Hotel,,,Esch-sur-Alzette,Travel & Transport
270,5167c928498ecad5d865f11c,Topaz Hotel,49.495467,5.980558,,LU,,,Lëtzebuerg,Lëtzebuerg,,,Hotel,,,Esch-sur-Alzette,Travel & Transport
271,4bcf48ae0ffdce72e958b2c0,Stand Inn Hotel Luxembourg,49.52283469115436,6.006519210860832,3898,LU,Mondercange,Lëtzebuerg,Lëtzebuerg,"9 Rue du Brill, 3898 Mondercange, Lëtzebuerg",9 Rue du Brill,,Hotel,,,Esch-sur-Alzette,Travel & Transport
276,5606f9d5498e07e15e520850,Ibis Budget Hotel,49.56209182739258,5.987513065338135,,LU,,,Lëtzebuerg,"Luksemburg, Lëtzebuerg",Luksemburg,,Hotel,,,Esch-sur-Alzette,Travel & Transport
277,4dffc7517d8b6151fbd4d0ae,Ibis Esch Belval,49.501015,5.946334,4361,LU,Esch-Uelzecht,Lëtzebuerg,Lëtzebuerg,"Avenue Du Rock N Roll, 12, 4361 Esch-Uelzecht, Lëtzebuerg","Avenue Du Rock N Roll, 12",,Hotel,,,Esch-sur-Alzette,Travel & Transport
278,4bcf6d330ffdce726077b2c0,ibis budget Luxembourg Sud,49.5324617009177,6.111510569020993,3378,LU,Livange,Lëtzebuerg,Lëtzebuerg,"Rue de Turi, 3378 Livange, Lëtzebuerg",Rue de Turi,,Hotel,,,Dudelange,Travel & Transport
351,4bc8ba77c1c6eee1e3defd92,Hotel Saint Nicolas & Spa,49.54483947589908,6.370411147074251,,LU,Réimech,Gréiwemaacher,Lëtzebuerg,"Esplanade 31, Réimech, Lëtzebuerg",Esplanade 31,,Hotel,97549952,,Remich,Travel & Transport
353,4f81aa4ae4b024a26e69bda3,Hotel L'Esplanade,49.54416648478468,6.369405945528968,L-5533,LU,Réimech,Gréiwemaacher,Lëtzebuerg,"Esplanade 5, L-5533 Réimech, Lëtzebuerg",Esplanade 5,,Hotel,,,Remich,Travel & Transport
354,59e79b42829b0c5ec01c1f41,Hotel & Restaurant The Nest,49.544341,6.369502,5533,LU,Réimech,Gréiwemaacher,Lëtzebuerg,"11 Esplanade, 5533 Réimech, Lëtzebuerg",11 Esplanade,,Hotel,,,Remich,Travel & Transport
355,50d4a912e4b04b47f04ae756,Hôtel-Restaurant de l'Ecluse,49.567119457429065,6.361334591142364,L-5450,LU,Stadtbredimus,Gréiwemaacher,Lëtzebuerg,"29, Wäistrooss (Route du Vin), L-5450 Stadtbredimus, Lëtzebuerg","29, Wäistrooss",Route du Vin,Hotel,,,Remich,Travel & Transport
356,4daeffa443a1f97d9197d0c5,Hotel des Vignes,49.543742,6.358236,,LU,Réimech,Gréiwemaacher,Lëtzebuerg,"Réimech, Lëtzebuerg",,,Hotel,,,Remich,Travel & Transport
357,4dc68f191f6ef43b8a3130f5,Hotel Zur Traube,49.53999371085298,6.377080572982757,,DE,Perl,Saarland,Deutschland,"Perl, Deutschland",,,Hotel,,,Remich,Travel & Transport
359,4d93bae345ae54810d24f5eb,Victor's Residenz Hotel,49.53493526,6.38680222,66706,DE,Schlossberg,Saarland,Deutschland,"Schloßstraße 27-29, 66706 Schlossberg, Deutschland",Schloßstraße 27-29,,Hotel,,,Remich,Travel & Transport
360,4e4425cc2271bdbcf670751d,Hotel Sonnenhof,49.48469325159711,6.458842015134107,,DE,Perl,Saarland,Deutschland,"Merziger Strasse 3, Perl, Deutschland",Merziger Strasse 3,,Hotel,,,Remich,Travel & Transport
362,4bcf74760ffdce726d7fb2c0,Mercure Kikuoka Golf Club Hotel,49.5937724,6.3096777,5412,LU,Canach,Gréiwemaacher,Lëtzebuerg,"Scheierhaff, 5412 Canach, Lëtzebuerg",Scheierhaff,,Hotel,,,Remich,Travel & Transport
366,5ac4748c598e6448974eed4a,Hotel Hammes,49.4734283001747,6.38926519467464,66706,DE,Perl,Saarland,Deutschland,"Hubertus-von-Nell-Str. 15, 66706 Perl, Deutschland",Hubertus-von-Nell-Str. 15,,Hotel,,,Remich,Travel & Transport
367,4ead51a25c5ce6e505f7eaa2,Hotel Beau-Séjour,49.5040659049838,6.279909563487087,,LU,Mondorf-les-Bains,Gréiwemaacher,Lëtzebuerg,"3 Avenue Dr Klein, Mondorf-les-Bains, Mondorf-les-Bains, Lëtzebuerg","3 Avenue Dr Klein, Mondorf-les-Bains",,Hotel,,,Remich,Travel & Transport
368,572b6c7f498e5dcdd9ce10f9,Hotel Perler Hof,49.4732,6.386461,,DE,,,Deutschland,Deutschland,,,Hotel,,,Remich,Travel & Transport
370,4b968466f964a52096d134e3,Hotel Am Klouschter,49.505261386599734,6.285142228238109,,LU,Mondorf-les-Bains,Gréiwemaacher,Lëtzebuerg,"Mondorf-les-Bains, Lëtzebuerg",,,Hotel,,,Remich,Travel & Transport
372,561ebac5498e870441aeccf6,Bamberg's Hotel,49.60098648071289,6.387660503387451,,LU,,,Lëtzebuerg,Lëtzebuerg,,,Hotel,,,Remich,Travel & Transport
505,4bc78bda93bdeee1138037ae,Hotel Parc Beaux Arts Luxembourg City,49.61137422447684,6.133561333127262,,LU,Lëtzebuerg,Lëtzebuerg,Lëtzebuerg,"1 Rue Sigefroi, Lëtzebuerg, Lëtzebuerg",1 Rue Sigefroi,,Hotel,,,Luxembourg City,Travel & Transport
576,4d8881fb76e1236a115cf142,Park Inn by Radisson Luxembourg City,49.602334394396955,6.133486144244671,1611,LU,Lëtzebuerg,Lëtzebuerg,Lëtzebuerg,"42-44, Avenue de la Gare, 1611 Lëtzebuerg, Lëtzebuerg","42-44, Avenue de la Gare",,Hotel,,,Luxembourg City,Travel & Transport
626,4ba1f7ebf964a52020d437e3,Grand Hôtel Cravat,49.609752632388954,6.1294121097192615,,LU,Lëtzebuerg,Lëtzebuerg,Lëtzebuerg,"29 bd F-D Roosevelt, Lëtzebuerg, Lëtzebuerg",29 bd F-D Roosevelt,,Hotel,,,Luxembourg City,Travel & Transport
627,4e4406dca809d4ed1bb6f0bf,Hotel Le Place d' Armes,49.6116908922928,6.1289179343800555,1136,LU,Lëtzebuerg,Lëtzebuerg,Lëtzebuerg,"18 Place d' Armes, 1136 Lëtzebuerg, Lëtzebuerg",18 Place d' Armes,,Hotel,,,Luxembourg City,Travel & Transport
628,4bd8ac2e2ecdce72c4e7d0f2,Hôtel Melià Luxembourg,49.61708,6.141486,1499,LU,Lëtzebuerg,Lëtzebuerg,Lëtzebuerg,"Park Drai Eechelen 1, 1499 Lëtzebuerg, Lëtzebuerg",Park Drai Eechelen 1,,Hotel,505740065,,Luxembourg City,Travel & Transport
629,4c7a8e96df08a1cde20bde5d,Hotel Parc Bellevue,49.606691514372706,6.122153933489881,,LU,Lëtzebuerg,Lëtzebuerg,Lëtzebuerg,"5, avenue Therese, Lëtzebuerg, Lëtzebuerg","5, avenue Therese",,Hotel,,,Luxembourg City,Travel & Transport
630,4be18b188dd062b5f84f3e3c,Hotel Restaurant Italia Luxembourg City,49.60317013839655,6.130313857259325,,LU,Lëtzebuerg,Lëtzebuerg,Lëtzebuerg,"Rue d Anvers 15-17, Lëtzebuerg, Lëtzebuerg",Rue d Anvers 15-17,,Hotel,,,Luxembourg City,Travel & Transport
631,4e39adc3aeb72d06596b48df,Hotel Christophe Colomb,49.60332399369476,6.129991143426717,L-1130,LU,Lëtzebuerg,Lëtzebuerg,Lëtzebuerg,"Rue d'Anvers, 10, L-1130 Lëtzebuerg, Lëtzebuerg","Rue d'Anvers, 10",,Hotel,,,Luxembourg City,Travel & Transport
632,4bc8f184762beee159ba3d38,Hotel Parc Plaza,49.6066474672739,6.12183983736352,,LU,Lëtzebuerg,Lëtzebuerg,Lëtzebuerg,"5 Avenue Marie Therese, Lëtzebuerg, Lëtzebuerg",5 Avenue Marie Therese,,Hotel,,,Luxembourg City,Travel & Transport
633,4bc8ba7ac1c6eee1e5defd92,Atel City Hotel,49.60449457168435,6.13359888415349,,LU,Lëtzebuerg,Lëtzebuerg,Lëtzebuerg,"Rue de Stasbourg, Lëtzebuerg, Lëtzebuerg",Rue de Stasbourg,,Hotel,,,Luxembourg City,Travel & Transport
634,4dba70074df0cac21aef59fd,Hotel Bristol,49.60132912710278,6.131726985658398,L-2561,LU,Lëtzebuerg,Lëtzebuerg,Lëtzebuerg,"11, Rue de Strasbourg, L-2561 Lëtzebuerg, Lëtzebuerg","11, Rue de Strasbourg",,Hotel,,,Luxembourg City,Travel & Transport
635,4f51d6f2e4b06025e82a50b3,Golden Tulip Hotel Central Molitor,49.6043333570004,6.130370172101374,1930,LU,Lëtzebuerg,Lëtzebuerg,Lëtzebuerg,"Ave. De La Liberte 28, 1930 Lëtzebuerg, Lëtzebuerg",Ave. De La Liberte 28,,Hotel,88887059,,Luxembourg City,Travel & Transport
636,4bd8ac2d2ecdce72c3e7d0f2,Hotel Le Fort Reinsheim,49.603578821057326,6.120649898637534,L-1470,LU,Lëtzebuerg,Lëtzebuerg,Lëtzebuerg,"41 route d'Esch, L-1470 Lëtzebuerg, Lëtzebuerg",41 route d'Esch,,Hotel,,,Luxembourg City,Travel & Transport
637,4c26305af7ced13ae8d4256d,Best Western Plus Grand Hotel Victor Hugo,49.61863284490748,6.124682207582737,1750,LU,Lëtzebuerg,Lëtzebuerg,Lëtzebuerg,"3 avenue Victor Hugo, 1750 Lëtzebuerg, Lëtzebuerg",3 avenue Victor Hugo,,Hotel,,,Luxembourg City,Travel & Transport
638,4bd72f77304fce72923033ab,Hotel Piemont Luxembourg City,49.602251032382334,6.120376563619561,,LU,Lëtzebuerg,,Lëtzebuerg,"Route d'Esch 56-58, Lëtzebuerg, Lëtzebuerg",Route d'Esch 56-58,,Hotel,,,Luxembourg City,Travel & Transport
639,4c587a6c12f0d13aa68609ad,Hôtel Empire Sàrl,49.59951525716175,6.132966357893264,L-1616,LU,Lëtzebuerg,Lëtzebuerg,Lëtzebuerg,"34, Place de la Gare, L-1616 Lëtzebuerg, Lëtzebuerg","34, Place de la Gare",,Hotel,,,Luxembourg City,Travel & Transport
640,4bcf48ab0ffdce72e758b2c0,City Hotel Luxembourg,49.60151956310027,6.132673401740694,L-1021,LU,Lëtzebuerg,Lëtzebuerg,Lëtzebuerg,"1, Rue de Strasbourg (Avenue de la Liberté), L-1021 Lëtzebuerg, Lëtzebuerg","1, Rue de Strasbourg",Avenue de la Liberté,Hotel,,,Luxembourg City,Travel & Transport
643,4e3c5e752271d21e86e7cdf5,Hotel Vauban,49.6107652652084,6.130678196223973,1648,LU,Lëtzebuerg,Lëtzebuerg,Lëtzebuerg,"1648 Lëtzebuerg, Lëtzebuerg",,,Hotel,,,Luxembourg City,Travel & Transport
644,4bc78bd293bdeee10e8037ae,Hotel Parc Belair,49.607416204801225,6.110437546881276,,LU,Lëtzebuerg,Lëtzebuerg,Lëtzebuerg,"111 Avenue Du X Septembre, Lëtzebuerg, Lëtzebuerg",111 Avenue Du X Septembre,,Hotel,,,Luxembourg City,Travel & Transport
645,4bf2cb2ca32e20a1d7a0d557,Hôtel Français,49.61145387119774,6.129135415519123,,LU,Lëtzebuerg,Lëtzebuerg,Lëtzebuerg,"14 place d'armes, Lëtzebuerg, Lëtzebuerg",14 place d'armes,,Hotel,,,Luxembourg City,Travel & Transport
646,4bb871717421a593dacbc140,Hotel Simoncini,49.61005672152366,6.129905230405186,L-2240,LU,Lëtzebuerg,Lëtzebuerg,Lëtzebuerg,"6 rue Notre Dame, L-2240 Lëtzebuerg, Lëtzebuerg",6 rue Notre Dame,,Hotel,,,Luxembourg City,Travel & Transport
648,4e4196c7b0fb9728fa107b35,Hotel Coque ***,49.6240348791081,6.154004501736001,1745,LU,Luxemburgstad,Lëtzebuerg,Lëtzebuerg,"2 rue Léon Hengen, 1745 Luxemburgstad, Lëtzebuerg",2 rue Léon Hengen,,Hotel,,,Luxembourg City,Travel & Transport
649,50c97c65e4b05e432aa6e18d,City Hotel,49.60965858066775,6.132693325355001,,LU,Lëtzebuerg,Lëtzebuerg,Lëtzebuerg,"1 Rue de Strasbourg, Lëtzebuerg, Lëtzebuerg",1 Rue de Strasbourg,,Hotel,,,Luxembourg City,Travel & Transport
650,4e47af4b62e148603b83395a,Hôtel Ponte Vecchio,49.622352862236944,6.16477901015939,2221,LU,Lëtzebuerg,Lëtzebuerg,Lëtzebuerg,"271 Rue De Neudorf, 2221 Lëtzebuerg, Lëtzebuerg",271 Rue De Neudorf,,Hotel,,,Luxembourg City,Travel & Transport
651,51b5e6be498e93a31e08178f,Hotel-Restaurant Chez Anna Et Jean,49.586750730726415,6.1431636536125716,,LU,Howald,Lëtzebuerg,Lëtzebuerg,"248 Route De Thionville, Howald, Lëtzebuerg",248 Route De Thionville,,Hotel,,,Luxembourg City,Travel & Transport
653,4bd72f79304fce72933033ab,Rix Hotel Luxembourg City,49.611949920654,6.125855922699,,LU,Lëtzebuerg,Lëtzebuerg,Lëtzebuerg,"Boulevard Royal, Lëtzebuerg, Lëtzebuerg",Boulevard Royal,,Hotel,,,Luxembourg City,Travel & Transport
657,52544ad611d23c4cdb9de176,Hotel Grey,49.60034207519116,6.1328473614694925,L-1839,LU,Lëtzebuerg,Lëtzebuerg,Lëtzebuerg,"4, rue Joseph Junck (Place de la Gare), L-1839 Lëtzebuerg, Lëtzebuerg","4, rue Joseph Junck",Place de la Gare,Hotel,,,Luxembourg City,Travel & Transport
659,4ddac0167d8b1638176c1763,Hotel Zurich,49.60075386,6.1305752,L-1839,LU,Lëtzebuerg,Lëtzebuerg,Lëtzebuerg,"36, rue Joseph Junck, L-1839 Lëtzebuerg, Lëtzebuerg","36, rue Joseph Junck",,Hotel,,,Luxembourg City,Travel & Transport
660,4bcf39590ffdce72ec48b2c0,Hôtel L'Olivier,49.6203325230577,6.074259807939235,8008,LU,Strassen,Lëtzebuerg,Lëtzebuerg,"140 Route d'Arlon, 8008 Strassen, Lëtzebuerg",140 Route d'Arlon,,Hotel,,,Luxembourg City,Travel & Transport
661,4bc78bde93bdeee1168037ae,Hotel Delta Luxembourg City,49.60196299506838,6.126973232997364,,LU,Lëtzebuerg,Lëtzebuerg,Lëtzebuerg,"Rue Adolphe Fischer 74, Lëtzebuerg, Lëtzebuerg",Rue Adolphe Fischer 74,,Hotel,,,Luxembourg City,Travel & Transport
662,4ed665fdd3e36f47ead3c2e6,Domus Hotel,49.61031718963441,6.125068533966549,,LU,Lëtzebuerg,Lëtzebuerg,Lëtzebuerg,"37 Avenue Monterey, Lëtzebuerg, Lëtzebuerg",37 Avenue Monterey,,Hotel,,,Luxembourg City,Travel & Transport
663,4fd752d9e4b09d7e933f3ce9,Hotel Yasha,49.60072174505595,6.130763703584079,L-1839,LU,Lëtzebuerg,Lëtzebuerg,Lëtzebuerg,"27 Rue Joseph Junck, L-1839 Lëtzebuerg, Lëtzebuerg",27 Rue Joseph Junck,,Hotel,,,Luxembourg City,Travel & Transport
664,4b5026acf964a5208d1d27e3,Parc Hotel Alvisse 4* Luxembourg,49.640129668551275,6.154507905041759,1453,LU,Lëtzebuerg,Lëtzebuerg,Lëtzebuerg,"120 Route d'Echternach, 1453 Lëtzebuerg, Lëtzebuerg",120 Route d'Echternach,,Hotel,136918179,,Luxembourg City,Travel & Transport
665,4caef2fb39458cfa3837f69f,Hotel Carlton,49.601377194633166,6.131834083634979,L-2561,LU,Lëtzebuerg,Lëtzebuerg,Lëtzebuerg,"7-9, Rue de Strasbourg, L-2561 Lëtzebuerg, Lëtzebuerg","7-9, Rue de Strasbourg",,Hotel,,,Luxembourg City,Travel & Transport
667,4bc78bdc93bdeee1148037ae,Key Inn Appart Hotel Luxembourg City,49.60700045214534,6.117959289933233,,LU,Lëtzebuerg,Lëtzebuerg,Lëtzebuerg,"42 rue Albert 1er, Lëtzebuerg, Lëtzebuerg",42 rue Albert 1er,,Hotel,,Belair,Luxembourg City,Travel & Transport
671,51288214e889202ea3c97a2b,Key inn Apart-Hotel Limpertsberg,49.61929495726449,6.116176843643188,L-1509,LU,Lëtzebuerg,Lëtzebuerg,Lëtzebuerg,"1 Francois Faber (Avenue de la Faiencerie), L-1509 Lëtzebuerg, Lëtzebuerg",1 Francois Faber,Avenue de la Faiencerie,Hotel,,,Luxembourg City,Travel & Transport
672,5ca3896a92e7a9002c518557,JJ32 Hotel,49.6008,6.130904,1839,LU,Lëtzebuerg,Lëtzebuerg,Lëtzebuerg,"1839 Lëtzebuerg, Lëtzebuerg",,,Hotel,,Gare de Luxembourg,Luxembourg City,Travel & Transport
673,4b6de48af964a5206f992ce3,Hotel NH Luxembourg,49.63719529692503,6.218377237579345,2633,LU,Senningerberg,,Lëtzebuerg,"1 Route de Trèves, 2633 Senningerberg, Lëtzebuerg",1 Route de Trèves,,Hotel,,,Luxembourg City,Travel & Transport
756,4f2d5496e4b059914ee4723e,Mühlenthaler's Park Hotel,49.69869320991948,6.572146818082651,54329,DE,Konz,Rheinland-Pfalz,Deutschland,"Granastr. 26, 54329 Konz, Deutschland",Granastr. 26,,Hotel,72087746,,Grevenmacher,Travel & Transport
764,505ea010e4b066ef67b50790,Hotel Weber,49.670413892446604,6.432248881239015,,DE,Wellen,Rheinland-Pfalz,Deutschland,"Wellen, Deutschland",,,Hotel,,,Grevenmacher,Travel & Transport
765,4bd8a3152ecdce7202e1d0f2,Hotel Igeler Säule,49.70911700953794,6.549986686984736,,DE,Igel,Rheinland-Pfalz,Deutschland,"Trierer Str. 41, Igel, Deutschland",Trierer Str. 41,,Hotel,,,Grevenmacher,Travel & Transport
766,4b53093ef964a5202d8d27e3,Hotel Simon's Plaza,49.67752405841612,6.398795364346812,6776,LU,Gréiwemaacher,Gréiwemaacher,Lëtzebuerg,"7 Potaschberg, 6776 Gréiwemaacher, Lëtzebuerg",7 Potaschberg,,Hotel,,,Grevenmacher,Travel & Transport
767,4bd8a0b62ecdce7250dfd0f2,Hotel Saar Galerie GmbH,49.60672231054802,6.545620856074098,54439,DE,Saarburg,Rheinland-Pfalz,Deutschland,"Heckingstrasse 12-14, 54439 Saarburg, Deutschland",Heckingstrasse 12-14,,Hotel,,,Grevenmacher,Travel & Transport
768,4e3b218cae60454236469113,Hotel Kinnen,49.712580650196905,6.49532789598843,,LU,Wasserbillig,Gréiwemaacher,Lëtzebuerg,"Wasserbillig, Lëtzebuerg",,,Hotel,,,Grevenmacher,Travel & Transport
773,4d415aeb90f9224bf2c30e1e,"Hotel am Markt ""Restaurant Meridiana""",49.608095899072225,6.550379465483199,54439,DE,Saarburg,Rheinland-Pfalz,Deutschland,"Am Markt 10-12, 54439 Saarburg, Deutschland",Am Markt 10-12,,Hotel,,,Grevenmacher,Travel & Transport
775,527591e211d255772d3c6fc7,Hotel Römerstuben,49.695607,6.57669,,DE,,,Deutschland,Deutschland,,,Hotel,,,Grevenmacher,Travel & Transport
776,4cdf277cdb125481336435ce,Hotel Am Markt,49.608235766797094,6.550588182941393,,DE,,,Deutschland,Deutschland,,,Hotel,,,Grevenmacher,Travel & Transport
777,515ab0c2e4b008c4e0795f30,Hotel am Kunoturm,49.607123,6.550528,54439,DE,Saarburg,Rheinland-Pfalz,Deutschland,"Kunohof 19, 54439 Saarburg, Deutschland",Kunohof 19,,Hotel,,,Grevenmacher,Travel & Transport
778,51af5ee5498e9e61a1db43b3,Hotel Schons,49.710365295410156,6.595382213592529,,DE,,,Deutschland,Deutschland,,,Hotel,,,Grevenmacher,Travel & Transport
779,4bc87976dc55eee1367ce8ac,Hotel Restaurant Kugel Trier,49.721764071939695,6.578980229546956,,DE,Trier,Rheinland-Pfalz,Deutschland,"Kirchenstrasse 17, Trier, Deutschland",Kirchenstrasse 17,,Hotel,,,Grevenmacher,Travel & Transport
783,52751de011d2be97408749ae,Scheid's Hotel Restaurant,49.70597087135221,6.546497185603644,54332,DE,Wasserliesch,Rheinland-Pfalz,Deutschland,"Reinigerstr. 48, 54332 Wasserliesch, Deutschland",Reinigerstr. 48,,Hotel,,,Grevenmacher,Travel & Transport
786,4bfcad88e529c928b4e7b98c,Ambiente Hotel Restaurant,49.72117826929149,6.580749045969788,54294,DE,Trier Zewen,Rheinland-Pfalz,Deutschland,"In der Acht, 54294 Trier Zewen, Deutschland",In der Acht,,Hotel,,,Grevenmacher,Travel & Transport
789,4bd731b2304fce72303333ab,Au Vieux Moulin Hotel Echternach,49.79750313124716,6.388927407844492,,LU,Iechternach,Gréiwemaacher,Lëtzebuerg,"Maison N6, Iechternach, Lëtzebuerg",Maison N6,,Hotel,,,Echternach,Travel & Transport
896,4fa156c8e4b0829ddfb632e8,Hôtel Herckmans,49.846471,6.099119,9070,LU,Ettelbruck,Dikrech,Lëtzebuerg,"3 Place de la Résistance, 9070 Ettelbruck, Lëtzebuerg",3 Place de la Résistance,,Hotel,,,Ettelbruck,Travel & Transport
897,5dcf7a99c7574300072659c7,Hôtel Herckmans – Restaurant Le Restone,49.846282,6.100025,9087,LU,Ettelbruck,Dikrech,Lëtzebuerg,"3 place De L'Hôtel De Ville, 9087 Ettelbruck, Lëtzebuerg",3 place De L'Hôtel De Ville,,Hotel,,,Ettelbruck,Travel & Transport
919,58964944000bef635d2453a0,Hotel Martha,49.759316,6.114649,,LU,,,Lëtzebuerg,Lëtzebuerg,,,Hotel,,,Ettelbruck,Travel & Transport
1090,4bdf0c357ea362b5ce4943c4,Hotel Gulliver Bascharage,49.5562846109895,5.897249504195799,,LU,Bascharage,Lëtzebuerg,Lëtzebuerg,"58 Rue Nicolas Meyers, Bascharage, Lëtzebuerg",58 Rue Nicolas Meyers,,Hotel,,,Differdange,Travel & Transport
1091,4f57da4be4b0e48a87171057,Hotel Beierhaascht,49.572608,5.923458,,LU,Bascharage,Lëtzebuerg,Lëtzebuerg,"240 Avenue de Luxembourg, Bascharage, Lëtzebuerg",240 Avenue de Luxembourg,,Hotel,,,Differdange,Travel & Transport
1093,4bd8ac402ecdce72d3e7d0f2,Hotel Threeland Petange,49.55797628423943,5.868351892685227,,LU,Péiteng,Lëtzebuerg,Lëtzebuerg,"Rue Pierre Hamer, Péiteng, Lëtzebuerg",Rue Pierre Hamer,,Hotel,,,Differdange,Travel & Transport
1151,5e5f3a07f4df8c0007eab068,"Hôtel Bel-Air, Sport & Wellness",49.819873,6.396172,6409,LU,Iechternach,Gréiwemaacher,Lëtzebuerg,"1 route De Berdorf, 6409 Iechternach, Lëtzebuerg",1 route De Berdorf,,Hotel,,,Echternach,Travel & Transport
1157,555754af498ebc6387f56821,Trail-Inn Natur & Sporthotel,49.82164909685974,6.349359820432221,6550,LU,Berdorf,Gréiwemaacher,Lëtzebuerg,"1 Rue d’Echternach, 6550 Berdorf, Lëtzebuerg",1 Rue d’Echternach,,Hotel,,,Echternach,Travel & Transport
1178,4d275ad38292236a07f70ebb,Hotel Restaurant Les Ardennes,49.814591842964745,6.41790233146895,6440,LU,Iechternach,Gréiwemaacher,Lëtzebuerg,"38 Rue de la Gare, 6440 Iechternach, Lëtzebuerg",38 Rue de la Gare,,Hotel,,,Echternach,Travel & Transport
1179,5e365ad3678a870007400676,Hôtel de la Sûre,49.815055,6.417374,6440,LU,Iechternach,Gréiwemaacher,Lëtzebuerg,"49 rue De La Gare, 6440 Iechternach, Lëtzebuerg",49 rue De La Gare,,Hotel,,,Echternach,Travel & Transport
1180,4f22a51ce4b067a324efaffd,Hotel De La Sure,49.81501753862593,6.417643024369095,6440,LU,Iechternach,Gréiwemaacher,Lëtzebuerg,"49 Rue de la Gare, 6440 Iechternach, Lëtzebuerg",49 Rue de la Gare,,Hotel,,,Echternach,Travel & Transport
1181,53ec4683498edee2a78566ec,Hotel zum golfstübchen,49.81369100456573,6.432232494737683,,DE,,,Deutschland,Deutschland,,,Hotel,,,Echternach,Travel & Transport
1185,4be18b428dd062b54e503e3c,Welcome Hotel Echternach,49.816683216674164,6.412842442257547,,LU,Iechternach,Gréiwemaacher,Lëtzebuerg,"9 Route De Diekirch, Iechternach, Lëtzebuerg",9 Route De Diekirch,,Hotel,,,Echternach,Travel & Transport
1186,4bd8ac2a2ecdce72c0e7d0f2,Le Petit Poète,49.81275654767085,6.420676126170079,,LU,Iechternach,Gréiwemaacher,Lëtzebuerg,"Place Du Marche 13, Iechternach, Lëtzebuerg",Place Du Marche 13,,Hotel,,,Echternach,Travel & Transport
1187,4be18b3e8dd062b543503e3c,Grand Hotel Echternach,49.81797138297316,6.40562845405589,,LU,Iechternach,Gréiwemaacher,Lëtzebuerg,"27 Route De Diekirch, Iechternach, Lëtzebuerg",27 Route De Diekirch,,Hotel,,,Echternach,Travel & Transport
1188,598a05a61bc7046cf7b2dcfe,resto grand hotel,49.817987,6.40545,6430,LU,Iechternach,Gréiwemaacher,Lëtzebuerg,"6430 Iechternach, Lëtzebuerg",,,Hotel,,,Echternach,Travel & Transport
1189,518f89f4498e31e53062bdac,Le Pavillon,49.81291439772487,6.41929216499698,6440,LU,Iechternach,Gréiwemaacher,Lëtzebuerg,"2, Rue de la Gare, 6440 Iechternach, Lëtzebuerg","2, Rue de la Gare",,Hotel,,,Echternach,Travel & Transport
1190,4bd731b1304fce722f3333ab,Eden Au Lac Hotel Echternach,49.80421379316325,6.405263452557941,,LU,Iechternach,Gréiwemaacher,Lëtzebuerg,"Oam Nonnesees, Iechternach, Lëtzebuerg",Oam Nonnesees,,Hotel,,,Echternach,Travel & Transport
1191,4e28545db0fba988bb6a9fc1,Le Bisdorff Hotel & Restaurant,49.81130686559226,6.348704669498102,,LU,Berdorf,Gréiwemaacher,Lëtzebuerg,"Berdorf, Lëtzebuerg",,,Hotel,,,Echternach,Travel & Transport
1193,4bcf6d2f0ffdce725b77b2c0,Bel Air Hotel Echternach,49.82009083318217,6.394959494362326,,LU,Iechternach,Gréiwemaacher,Lëtzebuerg,"1 Route De Berdorf, Iechternach, Lëtzebuerg",1 Route De Berdorf,,Hotel,,,Echternach,Travel & Transport
1194,5c5f0ce29de23b0039889162,Salle De Méditation Hotel Bel Air,49.82034,6.394573,6409,LU,Iechternach,Gréiwemaacher,Lëtzebuerg,"6409 Iechternach, Lëtzebuerg",,,Hotel,,,Echternach,Travel & Transport
1196,4ca6182976d3a093360cfe6a,Hotel Gruber,49.81835326615424,6.475326388411918,6585,LU,Steinheim,Gréiwemaacher,Lëtzebuerg,"Route d'Echternach 36, 6585 Steinheim, Lëtzebuerg",Route d'Echternach 36,,Hotel,,,Echternach,Travel & Transport
1197,4bd1d3475e0cce72400da284,Hotel Perekop Berdorf,49.8199339351097,6.3590104564094405,,LU,Berdorf,Gréiwemaacher,Lëtzebuerg,"89 Route D Echternach, Berdorf, Lëtzebuerg",89 Route D Echternach,,Hotel,,,Echternach,Travel & Transport
1198,5d82ef5fa3d6860007cbcc54,Hôtel-Restaurant Pérékop,49.823275,6.355505,6550,LU,Berdorf,Gréiwemaacher,Lëtzebuerg,"89 route D'Echternach, 6550 Berdorf, Lëtzebuerg",89 route D'Echternach,,Hotel,,,Echternach,Travel & Transport
1199,51910d49498e9c895c5d6738,Hotel Restaurant Eifeler Hof,49.86262864151497,6.406957185631658,54668,DE,,,Deutschland,"Büchelstraße 7, 54668, Deutschland",Büchelstraße 7,,Hotel,,,Echternach,Travel & Transport
1201,4fae0db4e4b021a2bfeb2b12,Hotel Kinnen,49.82135735250187,6.349595786379171,,LU,,Berdorf,Lëtzebuerg,"Rue D'Echternacht, Lëtzebuerg",Rue D'Echternacht,,Hotel,,,Echternach,Travel & Transport
1203,4dcd4737ae603b786d120271,Hotel De La Station,49.782386,6.354315,,LU,Scheidgen,Gréiwemaacher,Lëtzebuerg,"Route d'Echternach 10, Scheidgen, Lëtzebuerg",Route d'Echternach 10,,Hotel,,,Echternach,Travel & Transport
1206,51b30dcb498eef5f929be84d,Hotel Bon Repos,49.78179910883015,6.360105574770177,,LU,,,Lëtzebuerg,Lëtzebuerg,,,Hotel,,,Echternach,Travel & Transport
1207,51703279e4b0d649e4e1e653,Hotel Burg Bollendorf,49.8492924374241,6.367741608570297,,DE,,,Deutschland,Deutschland,,,Hotel,,,Echternach,Travel & Transport
1208,4bd72566304fce72192433ab,Hotel Hauer Bollendorf,49.85142186095277,6.360461711883545,,DE,Bollendorf,Rheinland-Pfalz,Deutschland,"Sauerstaden 20, Bollendorf, Deutschland",Sauerstaden 20,,Hotel,,,Echternach,Travel & Transport
1210,5982559b0d2be74343e5bbdb,Hotel Brimer Room 27,49.835348,6.330234,6360,LU,Berdorf,Gréiwemaacher,Lëtzebuerg,"6360 Berdorf, Lëtzebuerg",,,Hotel,,,Echternach,Travel & Transport
1211,5562d345498e57b143b07725,Hotel Brimer Room 45,49.835387653336916,6.330043230790645,,LU,,,Lëtzebuerg,Lëtzebuerg,,,Hotel,,,Echternach,Travel & Transport
1212,4bd1df1d5e0cce72a71aa284,Hotel Ritschlay Bollendorf,49.8551846812344,6.359931434301293,,DE,Bollendorf,Rheinland-Pfalz,Deutschland,"Auf der Ritschlay 3, Bollendorf, Deutschland",Auf der Ritschlay 3,,Hotel,,,Echternach,Travel & Transport
1214,4d7100a586aa6dcbde46fba7,Hotel Brimer,49.83553625145297,6.33003723081862,,LU,,,Lëtzebuerg,Lëtzebuerg,,,Hotel,,,Echternach,Travel & Transport
1219,4c66a7e2f7a80f473f839e7a,Hotel De Perekop,49.81576681137085,6.2853920459747314,,LU,Waldbillig,Gréiwemaacher,Lëtzebuerg,"Haller, Waldbillig, Lëtzebuerg",Haller,,Hotel,,,Echternach,Travel & Transport
1221,4fef2d72e4b06603723cf6f2,Hotel Enzo,49.819897,6.281802,,LU,,,Lëtzebuerg,Lëtzebuerg,,,Hotel,,,Diekirch,Travel & Transport
1222,4fb90672e4b0e2f7bc738bd8,Hotel Meyer,49.84353645341477,6.289129245947152,,LU,,,Lëtzebuerg,Lëtzebuerg,,,Hotel,,,Vianden,Travel & Transport
1350,4fbd4041e4b0a06fb678ad1f,Hôtel de La Frontière,49.50650844710292,6.192770430125602,,LU,Fréiseng,Lëtzebuerg,Lëtzebuerg,"52 Robert Schuman Strooss, Fréiseng, Lëtzebuerg",52 Robert Schuman Strooss,,Hotel,,,Dudelange,Travel & Transport
1370,514ce731e4b0c471e8b77940,Hotel Edelweiss Engelberg,49.56458282470703,6.129018306732178,,LU,,,Lëtzebuerg,Lëtzebuerg,,,Hotel,,,Luxembourg City,Travel & Transport
1373,4dff75afaeb7b31c732c2632,Hotel Alzin,49.56522665018248,6.161382056002607,5836,LU,Alzingen,Lëtzebuerg,Lëtzebuerg,"Rue Nicolas Wester 2, 5836 Alzingen, Lëtzebuerg",Rue Nicolas Wester 2,,Hotel,,,Luxembourg City,Travel & Transport
1506,5a78ce4e95da0c7930ea57b2,Hôtel Du Nord,49.52334106,5.76385123,54400,FR,Longwy,Grand Est,France,"14-16 Rue Gambetta, 54400 Longwy, France",14-16 Rue Gambetta,,Hotel,575111994,,Differdange,Travel & Transport
1515,5bab160abf7dde002cc24c95,B&B HOTEL,49.51697206421897,5.7475685264587355,54420,FR,LEXY,FR-GES,France,"Rue de la Carrière, 54420 LEXY, France",Rue de la Carrière,,Hotel,,,Differdange,Travel & Transport
1534,5e47b446eef3060008cbafca,HôtelF1 Longwy,49.51679998711233,5.751698658746363,54400,FR,Longwy,Lorraine,France,"3 Rue Du Pulventeux, 54400 Longwy, France",3 Rue Du Pulventeux,,Hotel,,,Differdange,Travel & Transport
1538,59dbedd5851de5744ab3049b,B&B Hotel Longwy,49.51693,5.7477045,54400,FR,Longwy,Grand Est,France,"Rue de la Carriere, 54400 Longwy, France",Rue de la Carriere,,Hotel,,,Differdange,Travel & Transport
1539,4df3c8a4483bdb5e13759666,Première Classe Longwy,49.5160666667,5.7519,54400,FR,Longwy,Lorraine,France,"3 rue Du Pulventeux (Zac De Mercieres), 54400 Longwy, France",3 rue Du Pulventeux,Zac De Mercieres,Hotel,,,Differdange,Travel & Transport
1672,4c00205792a6c9282fb243e2,Hotel La Poste,49.78316471277178,6.220024512988702,,LU,Larochette,Lëtzebuerg,Lëtzebuerg,"Reu de Medernach (Reu Scheerbach), Larochette, Lëtzebuerg",Reu de Medernach,Reu Scheerbach,Hotel,,,Diekirch,Travel & Transport
23,4bc8ba8ec1c6eee1f2defd92,Aux Anciennes Tanneries Hotel Wiltz,49.97023822847995,5.932261142301192,9550,LU,Wolz,Dikrech,Lëtzebuerg,"44, Rue Jos Simon, 9550 Wolz, Lëtzebuerg","44, Rue Jos Simon",,Restaurant,,,Wiltz,Food
27,4f36b206e4b00af1792ad3a4,Hotel Restaurant Pommerloch,49.95997108318972,5.860731999555267,L-9638,LU,Pommerloch,Dikrech,Lëtzebuerg,"Wohlber 2, L-9638 Pommerloch, Lëtzebuerg",Wohlber 2,,Restaurant,,,Wiltz,Food
32,5031364ae4b0504d9f41cd72,Hôtel Postillion,49.91006559832432,5.935203240287961,,LU,,,Lëtzebuerg,Lëtzebuerg,,,Restaurant,,,Wiltz,Food
61,581ce213569e1b2ffb355d6f,Restaurant hotel Koener,50.053148,6.03079,9710,LU,Cliärref,Dikrech,Lëtzebuerg,"9710 Cliärref, Lëtzebuerg",,,Restaurant,,,Wiltz,Food
64,5a1ac962a22db72597cc37fc,Beim Schlass Restaurant,49.965944,5.937062,9530,LU,Wolz,Dikrech,Lëtzebuerg,"Grand Rue 1, 9530 Wolz, Lëtzebuerg",Grand Rue 1,,Restaurant,,,Wiltz,Food
66,5a76f1faf4b5252a1e08fea7,Restaurant An Der Gaessen,49.996142,5.947712,9651,LU,Wolz,Dikrech,Lëtzebuerg,"25, Duerfstrooss, 9651 Wolz, Lëtzebuerg","25, Duerfstrooss",,Restaurant,,,Wiltz,Food
67,52091bc711d2af0902305d67,Restaurant Cocoon,49.91148933791861,6.0830675760431525,,LU,Bourscheid-Plage,,Lëtzebuerg,"Bourscheid-Plage, Lëtzebuerg",,,Restaurant,,,Ettelbruck,Food
68,51a11154498ebbace0e91f69,Restaurant Hatz,49.95231575697358,6.01728063297556,,LU,,,Lëtzebuerg,Lëtzebuerg,,,Restaurant,,,Wiltz,Food
71,5ada504ca2c00b0275cea711,Restaurant Dirbach Plage,49.92045,6.036963,9153,LU,Esch-sur-Sûre,Dikrech,Lëtzebuerg,"9153 Esch-sur-Sûre, Lëtzebuerg",,,Restaurant,,,Ettelbruck,Food
77,5198cd7e498e336c8c04e6a7,Restaurant (privé) Keltesch,49.91738,6.084288,,LU,,,Lëtzebuerg,Lëtzebuerg,,,Restaurant,,,Ettelbruck,Food
81,5b1bda25a92d98002c5ff49a,De Stau Restaurant,49.879896,5.991444,9156,LU,Heiderscheid,Dikrech,Lëtzebuerg,"9156 Heiderscheid, Lëtzebuerg",,,Restaurant,,,Wiltz,Food
126,4c949ee6f244b1f78c8f231d,Hotel Dahm,49.86541135305061,6.113231758144128,9145,LU,Erpeldange,Dikrech,Lëtzebuerg,"57, Porte des Ardennes, 9145 Erpeldange, Lëtzebuerg","57, Porte des Ardennes",,Restaurant,,,Ettelbruck,Food
167,4c38ba910a71c9b65b3041c9,Restaurant Um Grill,49.870059318474425,6.158642485716009,9227,LU,Dikrech,Dikrech,Lëtzebuerg,"4 Esplanade, 9227 Dikrech, Lëtzebuerg",4 Esplanade,,Restaurant,,,Diekirch,Food
170,5152031de4b097b74d6eb537,restaurant les timandines,49.86692365235121,6.17442621979532,,LU,,,Lëtzebuerg,Lëtzebuerg,,,Restaurant,,,Diekirch,Food
172,5e48cf7ee714a900088781a8,Restaurant Openrice,49.865568,6.157596,9233,LU,Dikrech,Dikrech,Lëtzebuerg,"35 avenue De La Gare, 9233 Dikrech, Lëtzebuerg",35 avenue De La Gare,,Restaurant,,,Diekirch,Food
175,4d03cebea26854816516b4bd,Restaurant Jardin du Portugal,49.865358,6.157066,9233,LU,Dikrech,Dikrech,Lëtzebuerg,"33 avenue De La Gare, 9233 Dikrech, Lëtzebuerg",33 avenue De La Gare,,Restaurant,,,Diekirch,Food
180,57a4d921498ec2d04b99e69d,Restaurant Kohnenhof,50.016637,6.137098,,LU,Obereisenbach,Dikrech,Lëtzebuerg,"Maison 1, Obereisenbach, Lëtzebuerg",Maison 1,,Restaurant,,,Vianden,Food
182,53626c41498e86e00a52aeb4,Restaurant Burgkeller,50.01096588457367,6.294221878051758,54673,DE,,,Deutschland,"Kirchgasse 3, 54673, Deutschland",Kirchgasse 3,,Restaurant,,,Vianden,Food
185,55e31b6f498e77eff5f6195f,Keltesch Restaurant privé,49.866444,6.146702,,LU,Dikrech,Dikrech,Lëtzebuerg,"Rue Glaesener, Dikrech, Lëtzebuerg",Rue Glaesener,,Restaurant,,,Diekirch,Food
209,4d92e9a4639d14566def446c,Brasserie L'Artiste,49.49623263711546,5.988266929407384,4220,LU,Esch-Uelzecht,Lëtzebuerg,Lëtzebuerg,"24, Rue de Luxembourg, 4220 Esch-Uelzecht, Lëtzebuerg","24, Rue de Luxembourg",,Restaurant,,,Esch-sur-Alzette,Food
286,4fc9e62ce4b024b076da9f5c,Restaurant Mama,49.485628,6.039208,,LU,,,Lëtzebuerg,Lëtzebuerg,,,Restaurant,,,Rumelange,Food
287,4c813662d92ea093c7c13e72,Restaurant de la place,49.48620701960767,6.042657315945021,L-3672,LU,Keel,Lëtzebuerg,Lëtzebuerg,"4, rue de Tetange, L-3672 Keel, Lëtzebuerg","4, rue de Tetange",,Restaurant,,,Rumelange,Food
292,4dad3c2c5da31bb15230ce9e,Restaurant Terramar,49.486070118647945,6.073024276969131,,LU,Diddeleng,Lëtzebuerg,Lëtzebuerg,"170 route de kayl, Diddeleng, Lëtzebuerg",170 route de kayl,,Restaurant,,,Dudelange,Food
316,5e3114f57df4920008832694,Restaurant Legend's - Tennis Club House,49.511287,6.016655,3858,LU,Schëffleng,Lëtzebuerg,Lëtzebuerg,"rue Denis Netgen, 3858 Schëffleng, Lëtzebuerg",rue Denis Netgen,,Restaurant,,,Esch-sur-Alzette,Food
324,4f10188de4b0865b061358fd,Toques Modernes - restaurant d'application,49.438639,6.016296,,FR,Ottange,Lorraine,France,"Rue De L Eglise, Ottange, France",Rue De L Eglise,,Restaurant,,,Rumelange,Food
375,4debc656ae60e989237b6ca5,Central Hotel/Greiveldinger und Restaurant,49.473276,6.386597,,DE,Perl,Saarland,Deutschland,"Perl, Deutschland",,,Restaurant,,,Remich,Food
387,5d9afcf4796a4c000865de02,Restaurant Wäistuff a Possen,49.53185,6.354425,5405,LU,Bech-Kleinmacher,Gréiwemaacher,Lëtzebuerg,"4 Keeseschgaessel, 5405 Bech Kleinmacher, Lëtzebuerg",4 Keeseschgaessel,,Restaurant,,,Remich,Food
391,5d95655387d8560008668eeb,Restaurant Fu-Zhou,49.600672,6.386591,5416,LU,Ehnen,Gréiwemaacher,Lëtzebuerg,"117 route Du Vin, 5416 Ehnen, Lëtzebuerg",117 route Du Vin,,Restaurant,,,Remich,Food
392,5395e10f498e2185a9502bc9,Restaurant River,49.60575,6.402271,,LU,,,Lëtzebuerg,Lëtzebuerg,,,Restaurant,,,Remich,Food
396,509ea9c5e4b0f56d61151188,Restaurant Kohn,49.51165847962535,6.256986045466846,L-5671,LU,Altwies,Gréiwemaacher,Lëtzebuerg,"12, rue Victor Hugo, L-5671 Altwies, Lëtzebuerg","12, rue Victor Hugo",,Restaurant,,,Remich,Food
399,5db171888b1353000878bc90,Restaurant-Party Service L'Orée du Palmberg,49.627473,6.421714,5401,LU,Ahn,Gréiwemaacher,Lëtzebuerg,"1 rue De La Résistance, 5401 Ahn, Lëtzebuerg",1 rue De La Résistance,,Restaurant,,,Grevenmacher,Food
476,5c51449dea1e44003944dd49,The Game Sportsbar & Steakhouse,49.6337,6.17276,1855,LU,Lëtzebuerg,Lëtzebuerg,Lëtzebuerg,"Avenue John F. Kennedy 45, 1855 Lëtzebuerg, Lëtzebuerg",Avenue John F. Kennedy 45,,Restaurant,,,Luxembourg City,Food
500,514c4699e4b0ef1500c9fcf3,Bistro Parc Beaux-Arts,49.6114,6.1334,,LU,Luxenburg,,Lëtzebuerg,"Luxenburg, Lëtzebuerg",,,Restaurant,,,Luxembourg City,Food
536,4e157335091a21120630fc68,Mika's Cookies & Coffee Shop,49.604522225505285,6.134415864944458,,LU,Lëtzebuerg,Lëtzebuerg,Lëtzebuerg,"12-14 Boulevard d'Avranches, Lëtzebuerg, Lëtzebuerg",12-14 Boulevard d'Avranches,,Restaurant,,,Luxembourg City,Food
620,5b682a5fff0306002ce4e27f,Hesper Park,49.57171006135388,6.158789634573623,5801,LU,Hesperange,Lëtzebuerg,Lëtzebuerg,"476 route de Thionville, 5801 HESPERANGE, Lëtzebuerg",476 route de Thionville,,Restaurant,,,Luxembourg City,Food
708,59b1893528122f42d28ad1ab,Restaurant La Villa,49.608871,6.150595,2356,LU,Lëtzebuerg,Lëtzebuerg,Lëtzebuerg,"5, rue de Pulvermuehl, 2356 Lëtzebuerg, Lëtzebuerg","5, rue de Pulvermuehl",,Restaurant,,,Luxembourg City,Food
709,4d8b2fbbbc848cfa1de9e92b,Restaurant Roast Square,49.62086331008197,6.14551321055091,2015,LU,Lëtzebuerg,Lëtzebuerg,Lëtzebuerg,"6 r. du Fort Niedergruenewald, 2015 Lëtzebuerg, Lëtzebuerg",6 r. du Fort Niedergruenewald,,Restaurant,,,Luxembourg City,Food
714,50ae0a69e4b09d9e0638e257,Restaurant Centser Roud Haus,49.614175,6.155177,2630,LU,Lëtzebuerg,Lëtzebuerg,Lëtzebuerg,"91 rue De Trèves, 2630 Lëtzebuerg, Lëtzebuerg",91 rue De Trèves,,Restaurant,,,Luxembourg City,Food
719,5097ae2ce4b0abc857b9bd2a,Restaurant du Centre Hospitalier de Luxembourg,49.61836211865188,6.100965225103789,1210,LU,Lëtzebuerg,Lëtzebuerg,Lëtzebuerg,"4 Rue Ernest Barblé, 1210 Lëtzebuerg, Lëtzebuerg",4 Rue Ernest Barblé,,Restaurant,,,Luxembourg City,Food
771,520667c011d2778ec62a4b9d,Zunftstube Hotel Restaurant,49.60816771311964,6.55055398550247,54439,DE,Saarburg,Rheinland-Pfalz,Deutschland,"Am Markt 11, 54439 Saarburg, Deutschland",Am Markt 11,,Restaurant,,,Grevenmacher,Food
793,575410bd498e11bf83ace86d,Restaurant Trois Quarts,49.702877,6.478364,6674,LU,Mertert,Gréiwemaacher,Lëtzebuerg,"4 place De La Gare, 6674 Mertert, Lëtzebuerg",4 place De La Gare,,Restaurant,,,Grevenmacher,Food
795,4e201b36fa761d67106dfb97,Restaurant Joel Schaeffer,49.70060009368531,6.481400662866371,6680,LU,Mertert,Gréiwemaacher,Lëtzebuerg,"1, rue Haute, 6680 Mertert, Lëtzebuerg","1, rue Haute",,Restaurant,78607247,,Grevenmacher,Food
796,5b79a126a2c00b002c51bb5d,Restaurant-Pizzeria Al Treno,49.699689,6.38375,6868,LU,Wecker,Gréiwemaacher,Lëtzebuerg,"4 Garerstrooss, 6868 Wecker, Lëtzebuerg",4 Garerstrooss,,Restaurant,,,Grevenmacher,Food
798,50b11a21e4b0f10422bbf55c,"Restaurant ""Wéi Doheem""",49.706399,6.372279,,LU,Biwer,Gréiwemaacher,Lëtzebuerg,"Kiirchestrooss 27, Biwer, Lëtzebuerg",Kiirchestrooss 27,,Restaurant,,,Grevenmacher,Food
801,5e9000e0d2839e000747a280,Restaurant Pèitry,49.679504,6.351759,6910,LU,Roodt-sur-Syre,Gréiwemaacher,Lëtzebuerg,"18 rue De Luxembourg, 6910 Roodt Sur Syre, Lëtzebuerg",18 rue De Luxembourg,,Restaurant,,,Grevenmacher,Food
805,525e4a8b11d23c626ada39d4,Restaurant Porticus,49.698656230945076,6.5718237564578885,54329,DE,Konz,Rheinland-Pfalz,Deutschland,"Granastrasse 26, 54329 Konz, Deutschland",Granastrasse 26,,Restaurant,72087388,,Grevenmacher,Food
810,4d8d0785c479a35d78762497,Restaurant Peitry,49.664444742542955,6.2999568249858635,,LU,Roodt/Syre,,Lëtzebuerg,"16 route de Luxembourg, Roodt/Syre, Lëtzebuerg",16 route de Luxembourg,,Restaurant,,,Remich,Food
890,56db372c498ebb7ab5e2d98e,Restaurant Brasserie Am Park,49.809379,6.092271,,LU,,,Lëtzebuerg,Lëtzebuerg,,,Restaurant,,,Ettelbruck,Food
940,56058a6e498efedb7b09963e,RESTAURANT Lanners,49.847795,6.10637,,LU,,,Lëtzebuerg,"L−9044 Ettelbruck−1, Lëtzebuerg",L−9044 Ettelbruck−1,,Restaurant,,,Ettelbruck,Food
951,4d0b4436dd5fa1cd85f05789,Restaurant Am Hennesbau,49.855404,6.046447,9175,LU,Niederfeulen,Dikrech,Lëtzebuerg,"15 C rue De La Fail, 9175 Niederfeulen, Lëtzebuerg",15 C rue De La Fail,,Restaurant,,,Ettelbruck,Food
965,5cae2e61da5e56002ca4bdaa,Brasserie Restaurant Op Der Gare 2,49.805573,6.213606,7661,LU,Medernach,Dikrech,Lëtzebuerg,"24, Rue de Larochette, 7661 Medernach, Lëtzebuerg","24, Rue de Larochette",,Restaurant,,,Diekirch,Food
969,58f39c2bee628b771f9c5a71,Restaurant Kronenbierg,49.743412,6.0898933,7572,LU,Miersch,Lëtzebuerg,Lëtzebuerg,"1 Rue du Camping, 7572 Miersch, Lëtzebuerg",1 Rue du Camping,,Restaurant,,,Ettelbruck,Food
981,5253f9df11d2857688a11b59,Fabrik Restaurant/Bar,49.75444563604936,6.110082922879775,7535,LU,Miersch,Lëtzebuerg,Lëtzebuerg,"33, Rue De La Gare, 7535 Miersch, Lëtzebuerg","33, Rue De La Gare",,Restaurant,,Beringen,Ettelbruck,Food
1110,4b731419f964a520059a2de3,Ristorante Favaro,49.49676859936438,5.980854034423828,4303,LU,Esch-Uelzecht,Lëtzebuerg,Lëtzebuerg,"19 Rue des Remparts, 4303 Esch-Uelzecht, Lëtzebuerg",19 Rue des Remparts,,Restaurant,,,Esch-sur-Alzette,Food
1113,5388e069498ee3dfd73ad453,El Dorado Cafe Restaurant,49.49723466326029,5.97815619909408,,LU,,,Lëtzebuerg,Lëtzebuerg,,,Restaurant,,,Esch-sur-Alzette,Food
1145,4e820bcd29c261c0039adafb,Restaurant NewCharly's,49.52272100595694,5.889707132930988,,LU,,,Lëtzebuerg,Lëtzebuerg,,,Restaurant,,,Differdange,Food
1177,59f378d175eee47ca5492d1c,Hôtel restaurant Bon accueil,49.813276,6.419135,6464,LU,Iechternach,Gréiwemaacher,Lëtzebuerg,"3 Rue des Merciers, 6464 Iechternach, Lëtzebuerg",3 Rue des Merciers,,Restaurant,,,Echternach,Food
1200,5e9fd1a9bfc621000817a17e,Hôtel Bon Repos & Le Restaurant Grill,49.781843,6.359489,6250,LU,Scheidgen,Gréiwemaacher,Lëtzebuerg,"28 route D'Echternach, 6250 Scheidgen, Lëtzebuerg",28 route D'Echternach,,Restaurant,,,Echternach,Food
1202,59720eccf2905e41f9e534d4,Hotel Burg Bollendorf GmbH,49.84937095552156,6.367734434979184,54669,DE,Bollendorf,Rheinland-Pfalz,Deutschland,"Burg Bollendorf 1, 54669 Bollendorf, Deutschland",Burg Bollendorf 1,,Restaurant,,,Echternach,Food
1216,500beddfe4b098bae3304013,hotel europa Restaurant,49.88640594482422,6.4194865226745605,,DE,,,Deutschland,Deutschland,,,Restaurant,,,Echternach,Food
1225,5ea25b3eda8b5b000866c952,Restaurant-Pizzeria Una Storia,49.812663,6.418551,6434,LU,Iechternach,Gréiwemaacher,Lëtzebuerg,"4 rue André Duchscher, 6434 Iechternach, Lëtzebuerg",4 rue André Duchscher,,Restaurant,,,Echternach,Food
1407,56b24f88498e1e3e5aaac77c,Café-Restaurant Douro,49.469281,6.082429,3512,LU,Diddeleng,Lëtzebuerg,Lëtzebuerg,"229 rue De La Libération, 3512 Diddeleng, Lëtzebuerg",229 rue De La Libération,,Restaurant,,,Dudelange,Food
1554,504b8976e4b08bf9e9d7c112,Restaurant Des Amis,49.49136,5.868715,,FR,,,France,France,,,Restaurant,,,Differdange,Food
1557,4da056ec4977236ab1b0c096,Restaurant Les Roses,49.54482728158852,5.839640359715288,,LU,,,Lëtzebuerg,Lëtzebuerg,,,Restaurant,,,Differdange,Food
1714,51f4ecaf498e3be660ae4c44,Restaurant Birkelt,49.78450020929212,6.211135083333874,,LU,,,Lëtzebuerg,Lëtzebuerg,,,Restaurant,,,Diekirch,Food
31,53f76309498e78515eabf25c,Hotel Beau-Site,49.910471,5.935516,,LU,,,Lëtzebuerg,Lëtzebuerg,,,Residential Building (Apartment / Condo),,,Wiltz,Residence
604,54e92a58498e2c0909fde2f9,Park Lane,49.604478164653635,6.072629353728581,,LU,,,Lëtzebuerg,Lëtzebuerg,,,Residential Building (Apartment / Condo),,,Luxembourg City,Residence
726,50b3b744e4b0036cfc27bbdc,Sport Chris Corner,49.678462982177734,6.439184188842773,,LU,,,Lëtzebuerg,Lëtzebuerg,,,Residential Building (Apartment / Condo),,,Grevenmacher,Residence
33,50277f1de4b07a366c72010c,Hotel Huberty,49.95223,6.017356,,LU,,,Lëtzebuerg,Lëtzebuerg,,,Hotel Bar,,,Wiltz,Nightlife Spot
37,4e3bbc8e62e19d610956a8f3,Hotel Saint-Laurant,49.909633,6.064067,,LU,Bourscheid,Dikrech,Lëtzebuerg,"Bourscheid, Lëtzebuerg",,,Hotel Bar,,,Ettelbruck,Nightlife Spot
63,4cb9c5c8cdccb71304a76d79,Piano bar d'Hotel International,50.05339835757339,6.030217409133911,,LU,Cliärref,Dikrech,Lëtzebuerg,"Grand-Rue 10, Cliärref, Lëtzebuerg",Grand-Rue 10,,Hotel Bar,,,Wiltz,Nightlife Spot
118,4ebd53bd469002701a312840,Hotel Restaurant La Tourelle,49.93374337085781,6.210708331513927,,LU,Veianen,Dikrech,Lëtzebuerg,"Veianen, Lëtzebuerg",,,Hotel Bar,,,Vianden,Nightlife Spot
652,52efc95f498e314d7d05ce19,Hotel Bar York City,49.60361460426394,6.12060522519249,,LU,Lëtzebuerg,Lëtzebuerg,Lëtzebuerg,"41 Route d'Esch, Lëtzebuerg, Lëtzebuerg",41 Route d'Esch,,Hotel Bar,,,Luxembourg City,Nightlife Spot
38,4bc03a47b492d13a3b07a460,Hotel du Golf de Clervaux,50.05655416897819,6.001759149043029,,LU,,,Lëtzebuerg,Lëtzebuerg,,,Golf Course,,,Wiltz,Outdoors & Recreation
41,5146dec129a6b7cccabb16ef,Hotel Le Clervaux,50.05323302848403,6.0311830043792725,L-9710,LU,Cliärref,Dikrech,Lëtzebuerg,"Grand-Rue 9, L-9710 Cliärref, Lëtzebuerg",Grand-Rue 9,,Resort,,,Wiltz,Travel & Transport
47,4da0522254dd8cfa74205772,Hotel Wellnes Du Commerce,50.053917316680405,6.029632161769995,,LU,Cliärref,Dikrech,Lëtzebuerg,"Route de Bastogne, Cliärref, Lëtzebuerg",Route de Bastogne,,Resort,,,Wiltz,Travel & Transport
55,56393238cd103c411b02f341,suite 1 Hotel Le Clervaux Boutique & design *****,50.053485,6.030646,,LU,,,Lëtzebuerg,Lëtzebuerg,,,Resort,,,Wiltz,Travel & Transport
56,51500b5ee4b039358d24a632,chambre 604 Hotel Koener,50.05342000692671,6.0311741850716025,,LU,,,Lëtzebuerg,Lëtzebuerg,,,Resort,,,Wiltz,Travel & Transport
252,547cc97b498e356dc67e8c86,Dao Hôtel,49.520291939819074,6.012350930599234,,LU,Foetz,Lëtzebuerg,Lëtzebuerg,"Rue du Brill, 164, Foetz, Lëtzebuerg","Rue du Brill, 164",,Resort,,,Esch-sur-Alzette,Travel & Transport
361,4bc78ec893bdeee1fe8237ae,Mondorf Parc Hôtel,49.503186793075876,6.283386946426067,5601,LU,Mondorf-les-Bains,Gréiwemaacher,Lëtzebuerg,"Avenue des Bains BP 52, 5601 Mondorf-les-Bains, Lëtzebuerg",Avenue des Bains BP 52,,Resort,,,Remich,Travel & Transport
674,506421e4e4b0d67380b0e12c,Bootik Hotel,49.60029105743554,6.132919151087073,,LU,,,Lëtzebuerg,Lëtzebuerg,,,Resort,,,Luxembourg City,Travel & Transport
42,5db170e679eb4d000896ae19,Restaurant Hôtel Bissen - Pizzeria am Gronn,49.905479,5.958371,9659,LU,Heischtergronn,Dikrech,Lëtzebuerg,"1 route De Bastogne, 9659 Heiderscheidergrund, Lëtzebuerg",1 route De Bastogne,,Italian Restaurant,,,Wiltz,Food
148,55329af8498efaf6be7d83ea,Resto Hotel du Parc,49.866331,6.15859,,LU,,,Lëtzebuerg,Lëtzebuerg,,,Italian Restaurant,,,Diekirch,Food
181,52d585ab498ef88332bad586,Restaurant d'Amici,49.853197650916194,6.1319180383477105,,LU,,,Lëtzebuerg,Lëtzebuerg,,,Italian Restaurant,,,Diekirch,Food
266,5dca808aadf07f000882a077,City Lodge - Appart-hôtel,49.505766,6.011817,3812,LU,Schëffleng,Lëtzebuerg,Lëtzebuerg,"1 rue Des Artisans, 3812 Schëffleng, Lëtzebuerg",1 rue Des Artisans,,Italian Restaurant,,,Esch-sur-Alzette,Food
274,4e47a7ed227128e1e8db660a,Bernini Hotel & Restaurant,49.526442,6.101048,,LU,,,Lëtzebuerg,Lëtzebuerg,,,Italian Restaurant,,,Dudelange,Food
280,4c4c9253959220a14cb24011,Restaurant Beim Josef,49.458309,6.030798,,LU,,,Lëtzebuerg,Lëtzebuerg,,,Italian Restaurant,,,Rumelange,Food
281,51c96ec1498e951bc348a8e3,Restaurant Dante,49.454049,6.027874,,FR,,,France,France,,,Italian Restaurant,,,Rumelange,Food
283,4e4d4ceda809b3dab3b58d97,Restaurant La Favola,49.49108511493215,5.9793330133410985,,LU,Esch-Uelzecht,Lëtzebuerg,Lëtzebuerg,"14 rue du Brill, Esch-Uelzecht, Lëtzebuerg",14 rue du Brill,,Italian Restaurant,,,Esch-sur-Alzette,Food
284,5717cd6d38fa5d03e4bb7452,Restaurant An Al Kayl,49.482264,6.024906,,LU,,,Lëtzebuerg,Lëtzebuerg,,,Italian Restaurant,,,Rumelange,Food
285,4d011eda6edfa093b5cc0f15,Restaurant Astoria,49.48646004923936,6.044492949074699,3631,LU,,,Lëtzebuerg,"17-19, rue de Dudelange, 3631, Lëtzebuerg","17-19, rue de Dudelange",,Italian Restaurant,,,Rumelange,Food
288,4d484cf911618cfad91dd323,Restaurant Pizzeria Garibaldi,49.48232980923166,6.080323794735152,3480,LU,Diddeleng,Lëtzebuerg,Lëtzebuerg,"59 Rue Gaffelt, 3480 Diddeleng, Lëtzebuerg",59 Rue Gaffelt,,Italian Restaurant,,,Dudelange,Food
289,4d04bed126adb1f7df4bd470,Restaurant Amarcord,49.474842,6.083345,3475,LU,Diddeleng,Lëtzebuerg,Lëtzebuerg,"1a rue du Centenaire, 3475 Diddeleng, Lëtzebuerg",1a rue du Centenaire,,Italian Restaurant,,,Dudelange,Food
299,4cc2ba2f82388cfada546235,Restaurant Carpini,49.489685,5.978175,,LU,,,Lëtzebuerg,Lëtzebuerg,,,Italian Restaurant,,,Esch-sur-Alzette,Food
305,4e4c29f7d164e69742c8171c,Restaurant Spartakus,49.493046,5.979214,,LU,Esch-Uelzecht,Lëtzebuerg,Lëtzebuerg,"Esch-Uelzecht, Lëtzebuerg",,,Italian Restaurant,,,Esch-sur-Alzette,Food
310,4e5545a01838d8d1dadb3cf6,Restaurant Allegro,49.492468,5.977491,,LU,Esch-Uelzecht,Lëtzebuerg,Lëtzebuerg,"Esch-Uelzecht, Lëtzebuerg",,,Italian Restaurant,,,Esch-sur-Alzette,Food
314,510c1f64e4b06e468a247f64,Restaurant Il Limoncello,49.517606143216575,6.0945358284919715,,LU,,,Lëtzebuerg,Lëtzebuerg,,,Italian Restaurant,,,Dudelange,Food
363,4db7f1795da3b5fa68b44d93,Gulliver Hotel -Restaurant,49.568412628125635,6.370001949260247,,LU,Bascharage,Lëtzebuerg,Lëtzebuerg,"Bascharage, Lëtzebuerg",,,Italian Restaurant,,,Remich,Food
378,4bd89a172ecdce72a5dad0f2,Gatsby,49.610665,6.415387,,DE,Wincheringen,Rheinland-Pfalz,Deutschland,"Am Muhlenberg 1, Wincheringen, Deutschland",Am Muhlenberg 1,,Italian Restaurant,,,Grevenmacher,Food
521,4e09a8cce4cdefcff6ea11bc,Brasserie Des Arts,49.594229,6.117346,,LU,Lëtzebuerg,Lëtzebuerg,Lëtzebuerg,"Lëtzebuerg, Lëtzebuerg",,,Italian Restaurant,,,Luxembourg City,Food
684,4e42fb8aae60167bcf4f5f0d,Restaurant Al Bacio,49.61002445062287,6.128758405022114,,LU,Lëtzebuerg,Lëtzebuerg,Lëtzebuerg,"Lëtzebuerg, Lëtzebuerg",,,Italian Restaurant,,,Luxembourg City,Food
686,4d4db534fe7fb1f767765f42,Restaurant AMBIENTE,49.616517817988495,6.097716728756351,1460,LU,Lëtzebuerg,Lëtzebuerg,Lëtzebuerg,"285 Route d'Arlon, 1460 Lëtzebuerg, Lëtzebuerg",285 Route d'Arlon,,Italian Restaurant,,,Luxembourg City,Food
699,4d2308a4e56f6ea84aca891d,Restaurant-Pizzeria Da Noi,49.61800855505906,6.12356591851964,,LU,Lëtzebuerg,Lëtzebuerg,Lëtzebuerg,"20, avenue Pasteur, Lëtzebuerg, Lëtzebuerg","20, avenue Pasteur",,Italian Restaurant,,,Luxembourg City,Food
723,4c0578d670839521be027bce,Restaurant Leonardo,49.655203557175625,6.233346462249756,6970,LU,Hostert,Lëtzebuerg,Lëtzebuerg,"116 rue Andethana, 6970 Hostert, Lëtzebuerg",116 rue Andethana,,Italian Restaurant,,,Luxembourg City,Food
770,57780180498e9c7c81a5a025,Hotel Löwener Mühle,49.714603,6.524776,,DE,,,Deutschland,Deutschland,,,Italian Restaurant,,,Grevenmacher,Food
780,58b31d923ef0f637888a9996,dacapri's hotel restaurant,49.711422,6.530473,,DE,,,Deutschland,Deutschland,,,Italian Restaurant,,,Grevenmacher,Food
816,4d4aeb477d36f04d8a8920e5,Restaurante Pizzeria Pinoccio,49.70077,6.575273,54329,DE,Konz,Rheinland-Pfalz,Deutschland,"Granastrasse 90, 54329 Konz, Deutschland",Granastrasse 90,,Italian Restaurant,,,Grevenmacher,Food
977,552a9e4d498e00d18e7a2122,Café Restaurant Marso,49.8330867988815,6.005010182486257,,LU,Mertzig,Dikrech,Lëtzebuerg,"Mertzig, Lëtzebuerg",,,Italian Restaurant,,,Ettelbruck,Food
986,4f85666fe4b0758308949d56,L'Aquario,49.743047,6.091614,7572,LU,Miersch,,Lëtzebuerg,"Rue de la piscine 14, 7572 Miersch, Lëtzebuerg",Rue de la piscine 14,,Italian Restaurant,,,Ettelbruck,Food
1076,4d6d400d68406ea893be7383,Hôtel-Restaurant Carpini,49.56367487157435,5.904123378045589,,LU,Bascharage,Lëtzebuerg,Lëtzebuerg,"79, route de Luxembourg, Bascharage, Lëtzebuerg","79, route de Luxembourg",,Italian Restaurant,,,Differdange,Food
1085,4bebc6079fa3ef3b544580c9,Hotel Casino Club,49.52286862157674,5.887577910670128,4621,LU,Déifferdeng,Lëtzebuerg,Lëtzebuerg,"Place du Marché, 12, 4621 Déifferdeng, Lëtzebuerg","Place du Marché, 12",,Italian Restaurant,,,Differdange,Food
1142,4eae9ab9722eefae84ece195,restaurant cristal,49.52025227693295,5.904088357250798,,LU,Soleuvre,Lëtzebuerg,Lëtzebuerg,"Soleuvre, Lëtzebuerg",,,Italian Restaurant,,,Differdange,Food
1147,536e212f498e2296af0b7e67,Restaurant Dimmi si s.à.r.l,49.518617018721,5.889000488898897,4513,LU,Niederkorn,Lëtzebuerg,Lëtzebuerg,"132, route de Bascharage, 4513 Niederkorn, Lëtzebuerg","132, route de Bascharage",,Italian Restaurant,,,Differdange,Food
1226,4e0b01e852b1fe83d548eeb7,Restaurant Mi Casa,49.812071,6.417221,6434,LU,Iechternach,Gréiwemaacher,Lëtzebuerg,"17 Rue André Duchscher, 6434 Iechternach, Lëtzebuerg",17 Rue André Duchscher,,Italian Restaurant,,,Echternach,Food
1237,4c4c306b9e6dbe9ab1181c0d,Oktav-Amadeus restaurant,49.81549527549385,6.417206386995129,,LU,Iechternach,Gréiwemaacher,Lëtzebuerg,"Rue de la gare, Iechternach, Lëtzebuerg",Rue de la gare,,Italian Restaurant,,,Echternach,Food
1239,50ce214ae4b0fb93340aa7f2,Du Passage,49.81310339289133,6.419964035377017,6446,LU,Iechternach,Gréiwemaacher,Lëtzebuerg,"2 Rue du Haut-Ruisseau, 6446 Iechternach, Lëtzebuerg",2 Rue du Haut-Ruisseau,,Italian Restaurant,,,Echternach,Food
1241,5214e78211d2c6e2ea1b15eb,Restaurant Bella Vita,49.782178,6.359919,,LU,,,Lëtzebuerg,Lëtzebuerg,,,Italian Restaurant,,,Echternach,Food
1428,5437b656498ef974a4f56fc8,Restaurant L'Altro,49.535967682223855,6.143990641983427,3326,LU,,,Lëtzebuerg,"36, rue de Bettembourg, 3326, Lëtzebuerg","36, rue de Bettembourg",,Italian Restaurant,,,Luxembourg City,Food
1433,5bfede8856c89f002c2c248d,Restaurant Gastronomique Fani,49.54,6.144571,3394,LU,Réiser,Lëtzebuerg,Lëtzebuerg,"51 Grand Rue, 3394 Réiser, Lëtzebuerg",51 Grand Rue,,Italian Restaurant,,,Luxembourg City,Food
1559,4eafd72af5b99d24264431e7,Restaurant Il Gousto,49.566509,5.909554,,LU,,,Lëtzebuerg,Lëtzebuerg,,,Italian Restaurant,,,Differdange,Food
1562,565dec67498ee06d2c35dcb8,Restaurant Pizzeria Bel Vedere,49.565250192843386,5.906696319580078,4940,LU,Déifferdeng,Lëtzebuerg,Lëtzebuerg,"82 Avenue de Luxembourg, 4940 Déifferdeng, Lëtzebuerg",82 Avenue de Luxembourg,,Italian Restaurant,,,Differdange,Food
44,4de34bec8877bcb686593b0a,Hotel St Hubert,50.053241109416184,6.034222700127398,9709,LU,Cliärref,Dikrech,Lëtzebuerg,"3 reuler, 9709 Cliärref, Lëtzebuerg",3 reuler,,Motel,,,Wiltz,Travel & Transport
48,4e3d321fa809ba757c062a9a,Réception HOTEL Koener,50.053323838070824,6.030863602106697,9710,LU,Cliärref,Dikrech,Lëtzebuerg,"Grand Rue, 9710 Cliärref, Lëtzebuerg",Grand Rue,,Office,,,Wiltz,Professional & Other Places
213,51ac5109498ea24ac7dae682,Arteceramica,49.537036,5.937304,,LU,,,Lëtzebuerg,Lëtzebuerg,,,Office,,,Differdange,Professional & Other Places
600,53e8b644498e4dd6dd939929,PwC Crystal Park,49.580504610588484,6.121693128055176,,LU,,,Lëtzebuerg,"2, rue Gerhard Mercator, Lëtzebuerg","2, rue Gerhard Mercator",,Office,,,Luxembourg City,Professional & Other Places
611,50c70d15e4b02d6d497abb95,Atrium Business Park,49.60768364515723,6.079769888114161,8070,LU,Bertrange,Lëtzebuerg,Lëtzebuerg,"Rue Du Puits Romain, 8070 Bertrange, Lëtzebuerg",Rue Du Puits Romain,,Office,,,Luxembourg City,Professional & Other Places
748,52fd1143498ee4d814856c71,Titanium Arts - Down under,49.70185089111328,6.48329496383667,,LU,,,Lëtzebuerg,Lëtzebuerg,,,Office,,,Grevenmacher,Professional & Other Places
1288,4cb54a031b0af04d7d65c825,Arthur Welter Transports,49.570999911360666,6.0776919626014125,L-3372,LU,Leudelange,Lëtzebuerg,Lëtzebuerg,"9 rue Nicolas Brosius, L-3372 Leudelange, Lëtzebuerg",9 rue Nicolas Brosius,,Office,,,Luxembourg City,Professional & Other Places
49,54e1a3e0498e9c646b14e1f3,hotelkamer 109,50.053297,6.030423,,LU,,,Lëtzebuerg,Lëtzebuerg,,,Building,,,Wiltz,Professional & Other Places
